facility_id,facility_name,address,ward,hotel_license_type,license_date,latitude,longitude,ヨーロッパ小計,中国,北米小計,国内合計,東南アジア小計,海外合計,韓国
id_1,あらか嵐山渡月邸　南棟,京都市西京区嵐山中尾下町１４番地４　国有地,西京区,簡易宿所,R1.8.26,35.0105125,135.6784014,25,0,0,52,1,29,2
id_2,ＣＯＴＯ京都伏見稲荷１,京都市伏見区深草一ノ坪町２９番地７,伏見区,簡易宿所,H29.5.1,34.9686276,135.7694913,8,10,128,91,11,182,2
id_3,ホテルグラッドワン京都七条　ｂｙ　Ｍ’ｓ,京都市下京区正面通木屋町東入北側鍵屋町３３７番京都市下京区三ノ宮町通正面上る富松町２５９番,下京区,旅館・ホテル,H29.10.2,34.9921283,135.7659456,13,26,6,84,18,74,6
id_4,万葉居,京都市下京区油小路通五条上る上金仏町２６０番地２,下京区,簡易宿所,R1.8.20,34.9971093,135.7540401,9,29,5,74,2,47,0
id_5,京都旅宿　小春日和,京都市下京区西新屋敷下之町６番地３,下京区,簡易宿所,H29.4.19,34.9928361,135.7430825,0,6,9,27,3,20,1
id_6,利々　京都,京都市下京区新町通楊梅下る蛭子町１２３番地２,下京区,簡易宿所,R4.7.21,34.995088,135.7565688,3,0,0,28,3,11,0
id_7,ｈｙｇｇｅ花屋町,京都市下京区二人司町１２番地３,下京区,簡易宿所,R4.4.15,34.992614,135.7466089,0,3,19,25,3,29,0
id_8,喜承庵,京都市中京区麸屋町通二条上る布袋屋町４９５番地３,中京区,簡易宿所,R2.3.3,35.0145367,135.7656827,27,41,16,84,11,160,3
id_9,室・近吉,京都市下京区鍵屋町通烏丸西入鍵屋町３２６番地，３２７番地,下京区,簡易宿所,H25.9.30,34.9950424,135.7585262,9,0,44,59,2,72,16
id_10,ｇｕｅｓｔ　ｈｏｕｓｅ　Ｐｅａｃｅ,京都市南区八条通大宮西入九条町６２１番地２９,南区,簡易宿所,H30.1.9,34.9836439,135.748369,12,32,47,68,4,215,0
id_11,オリックス京都嵐山荘,京都市右京区嵯峨天龍寺芒ノ馬場町１７番地,右京区,簡易宿所,H26.3.10,35.0167611,135.6764674,0,0,1,20,1,2,0
id_12,ゲストハウス松家,京都市中京区押小路通柳馬場東入橘町６１３番地４,中京区,簡易宿所,H29.3.13,35.0122318,135.7660184,30,6,14,104,11,90,7
id_13,京町家　桃,京都市上京区下立売通千本西入稲葉町４５１番地１,上京区,簡易宿所,R4.12.1,35.0202554,135.7417576,8,43,25,101,11,100,0
id_14,悠,京都市下京区若宮通六条西入上若宮町９４番,下京区,簡易宿所,H21.4.8,34.9942355,135.7557937,3,10,16,41,3,33,0
id_15,慶有魚・芸軒,京都市東山区建仁寺町四条下る四丁目小松町５７２番地７,東山区,簡易宿所,R6.4.26,34.9984516,135.7742613,6,2,6,31,2,16,0
id_16,静か庵,京都市東山区三条通南裏白川筋西入三丁目南西海子町４２９番地３,東山区,簡易宿所,H28.7.12,35.009339,135.7770372,1,0,5,37,1,12,0
id_17,ＲＥＳＩＳＴＡＹ五条坂,京都市東山区建仁寺町五条下る一丁目東入芳野町１０５番地２，１０４番地，１０４番地１,東山区,簡易宿所,H31.1.21,35.0047085,135.7735187,1,6,8,48,1,28,4
id_18,京都Ｒａｎｚ 三条Ｏｇａｗａ,京都市中京区小川通三条下る猩々町１２１番地,中京区,簡易宿所,R3.6.17,35.0082629,135.754557,35,2,6,65,0,103,1
id_19,Ｅｘｐｏ　Ｃｏｔｔａｇｅ　灯　－Ａｋａｒｉ－,京都市北区紫野西藤ノ森町１番地５３,北区,簡易宿所,H29.1.16,35.036379,135.7463795,15,11,7,52,2,36,0
id_20,Ｋｙｏｔｏ　Ｍａｃｈｉｙａ　鴨川ガーデンズ　ＹＵＫＩＭＩ,京都市東山区鞘町通五条下る三丁目豊浦町３４６番地１,東山区,簡易宿所,R6.7.25,34.9933217,135.769239,10,0,8,45,0,25,4
id_21,ＫＫ　Ｈｏｕｓｅ　Ｋｙｏｔｏ,京都市南区東九条柳下町５１番地２２,南区,簡易宿所,R3.7.16,34.9746571,135.7633813,0,2,6,81,3,50,3
id_22,太秦聖徳庵,京都市右京区太秦森ケ前町１１番地２３,右京区,簡易宿所,H30.6.21,35.0122874,135.7132061,0,0,2,31,0,4,2
id_23,Ｕｍｅｋｏｊｉ　Ｐｏｔｅｌ　ＫＹＯＴＯ,京都市下京区観喜寺町１５番地,下京区,旅館・ホテル,R2.8.5,34.9874832,135.7458282,1,12,16,43,5,48,0
id_24,旅館ひのもと,京都市下京区河原町通松原上る西入幸竹町３７５番地,下京区,旅館・ホテル,H30.12.26,34.9998347,135.7675723,12,2,0,51,1,18,0
id_25,京都九条　牡丹,京都市南区東九条東御霊町５８番地２０,南区,簡易宿所,H31.4.15,34.9775476,135.7636314,6,0,0,49,2,29,1
id_26,エキスポ　ホステル　ニシ,京都市北区紫野西藤ノ森町１番地の４９,北区,簡易宿所,H27.6.9,35.0365053,135.7463332,27,2,2,83,4,41,3
id_27,アビタホテル京都鴨川,京都市東山区問屋町通五条下る四丁目鍵屋町４９７番地１他,東山区,旅館・ホテル,R2.11.16,34.9919417,135.7681376,6,0,6,31,1,18,4
id_28,三十三　ＴＡＴＳＵ,京都市南区西九条島町４番地９,南区,簡易宿所,R7.9.8,34.9765054,135.7533997,9,12,5,59,0,30,2
id_29,ＫＡＭＯ　Ｒｅｓｉｄｅｎｃｅｓ,京都市上京区御車道通清和院口上る東側梶井町４４７番地６,上京区,簡易宿所,R4.2.7,35.029356,135.7706123,0,14,36,67,8,64,2
id_30,京蘭－花影邸,京都市下京区楊梅通新町東入上柳町２２３番地１７,下京区,簡易宿所,R5.6.8,34.9957588,135.7575191,1,8,0,20,0,14,1
id_31,小楽庵,京都市中京区西ノ京右馬寮町３番地２,中京区,簡易宿所,H28.8.22,35.0149928,135.7373488,23,21,1,62,6,54,2
id_32,京都和家,京都市下京区花屋町通櫛笥西入薬園町１７４番地５,下京区,旅館・ホテル,R5.1.24,34.9928105,135.7465275,0,8,0,32,0,16,1
id_33,京のこころ　Ｋｙｏｔｏ’ｓ　Ｈｅａｒｔ,京都市左京区吉田中阿達町１０番地２７，１０番地４６,左京区,簡易宿所,H29.12.26,35.0243914,135.7744354,0,0,0,20,0,14,0
id_34,豊・南　京都　（Ｙｕｔａｋａ　Ｍｉｎａｍｉ　Ｋｙｏｔｏ）,京都市南区東九条南山王町３８番地８,南区,簡易宿所,R5.11.7,34.9813269,135.7628628,40,18,67,98,15,181,0
id_35,Ｎａｚｕｎａ　京都　東本願寺,京都市下京区不明門通上珠数屋町下る亀町２番地,下京区,簡易宿所,R6.10.17,34.991812,135.7602434,2,47,77,89,18,159,6
id_36,芹の里,京都市右京区京北芹生町芹生22番地,右京区,簡易宿所,H16.1.9,35.1581734,135.7507659,13,4,2,83,15,46,6
id_37,御宿　京灯,京都市下京区東中筋通六条下る学林町２９５番地８,下京区,簡易宿所,H28.8.5,34.9940673,135.7547177,5,1,16,42,13,36,0
id_38,アーバンホテル京都,京都市伏見区深草西浦町四丁目59番地,伏見区,旅館・ホテル,H6.3.4,34.9613823,135.7679115,6,0,0,23,2,8,0
id_39,Ｂｅｎ’ｓ　Ｇｕｅｓｔｈｏｕｓｅ　Ｋｙｏｔｏ,京都市上京区一条通七本松西入東町４３番地１，４３番地４,上京区,簡易宿所,R4.5.12,35.0261877,135.7388291,6,2,23,87,6,42,3
id_40,ピースホステル京都,京都市南区東九条東山王町２１－１,南区,簡易宿所,H25.3.28,34.983611,135.7621203,8,2,20,58,2,39,2
id_41,ゲストハウス極楽堂,京都市下京区七条通烏丸西入西境町１６７番地,下京区,簡易宿所,H29.8.14,34.9890229,135.7582386,2,1,2,25,0,7,0
id_42,京旅籠むげん,京都市上京区黒門通上長者町下る北小大門町５４８番地１,上京区,旅館・ホテル,R4.8.23,35.0233781,135.7497479,25,8,18,70,6,171,1
id_43,橼舎　隠清水,京都市東山区五条橋東六丁目５３８番地３４　１階，２階,東山区,簡易宿所,H30.4.18,34.9947598,135.7808523,3,0,3,18,0,11,4
id_44,Ｈｏｔｅｌ　Ｔｈｅ　Ｍ’ｓ　Ｋｙｏｔｏ,京都市南区東九条東山王町６番地,南区,簡易宿所,R3.2.26,34.9824184,135.7613006,12,18,49,93,1,184,3
id_45,ぎおん美先古門前,京都市東山区古門前通大和大路東入三吉町３５０番地,東山区,旅館・ホテル,R3.2.15,35.007182,135.7747317,1,2,7,35,0,30,0
id_46,京都西陣の宿　花つなぎ,京都市上京区上立売通浄福寺西入二丁目下る姥ヶ榎木町８４８番地,上京区,簡易宿所,H30.6.4,35.0314985,135.7439643,40,2,22,67,8,78,2
id_47,奏　京都八条口,京都市南区東九条南山王町４０番地６,南区,簡易宿所,H31.3.27,34.9816752,135.7629124,4,11,0,50,1,41,0
id_48,Kyoto Central Base,京都市中京区油小路通竹屋町下る橋本町４６９番地２,中京区,簡易宿所,R6.4.26,35.0160441,135.753316,15,21,0,62,1,81,1
id_49,慶有魚　天神,京都市下京区松原通油小路東入天神前町３３９番地,下京区,簡易宿所,R7.10.6,34.9987746,135.7545326,2,23,31,67,12,73,1
id_50,義方居,京都市中京区西ノ京中保町９７番地３,中京区,簡易宿所,H30.2.23,35.020471,135.7327135,0,0,7,38,0,27,0
id_51,紡　八条源町,京都市南区八条源町１１５番地,南区,簡易宿所,R2.2.10,34.9820227,135.742854,3,18,11,110,4,115,4
id_52,ホテルリソル京都　河原町三条,京都市中京区河原町通三条下る大黒町５７番地，５７番地３他河原町通三条下る二丁目山崎町２３４番地２,中京区,旅館・ホテル,H30.5.29,35.0079487,135.7692339,71,83,10,90,10,187,3
id_53,ＫＡＳＨＩＮ　壬生,京都市中京区壬生高樋町６５番地,中京区,簡易宿所,H28.11.4,35.001571,135.7412995,6,35,16,93,10,87,0
id_54,京旅籠やまの,京都市西京区嵐山上海道町３６番地,西京区,簡易宿所,H30.5.1,35.0080358,135.6822028,10,2,4,86,22,111,1
id_55,京町家のやど　室町　別邸,京都市下京区室町通五条下る大黒町２１４番地,下京区,簡易宿所,H30.7.2,34.9951659,135.7581052,10,23,41,69,15,94,4
id_56,ゲストハウス　エビス,京都市上京区上立売通浄福寺西入蛭子町６５３番地　１階,上京区,簡易宿所,H29.8.7,35.0322649,135.7448989,65,20,26,88,13,195,3
id_57,蒔田町 chashitsu,京都市東山区大仏南門通本町東入蒔田町５５４番地５,東山区,簡易宿所,H28.5.26,34.9867303,135.7705652,0,1,0,24,0,5,2
id_58,ｈｏｔｅｌ　ｔｏｕ　ｎｉｓｈｉｎｏｔｏｉｎ　ｋｙｏｔｏ,京都市下京区西洞院通花屋町下る西洞院町４５５番地,下京区,旅館・ホテル,R3.3.25,34.9920408,135.7554303,3,1,0,30,0,15,2
id_59,アズーロ・エレファンテ,京都市東山区粟田口三条坊町３０番地２４，３０番地６６,東山区,簡易宿所,H29.3.1,35.0078812,135.7813558,1,1,4,22,0,13,2
id_60,旅館吉川　株式会社,京都市中京区富小路通御池下る松下町135,中京区,旅館・ホテル,S31.4.2,35.010343,135.7647865,9,14,5,41,3,95,0
id_61,コウメノトナリ,京都市左京区古川町通仁王門下る東門前町５２３番地５,左京区,簡易宿所,R2.11.5,35.0103879,135.7788845,5,31,3,56,7,79,1
id_62,ますや旅館,京都市左京区新麩屋町通仁王門下る大菊町145,左京区,旅館・ホテル,S54.9.11,35.0104924,135.7742064,3,12,16,44,5,38,1
id_63,京と家　五条大阪町,京都市東山区鞘町通五条下る二丁目大阪町３８５番地１，３８７番地１,東山区,簡易宿所,H30.5.7,34.9947204,135.7692969,4,1,60,93,1,80,11
id_64,斎物居,京都市東山区大黒町通松原下る北御門町２７７番地１,東山区,簡易宿所,R6.6.3,34.9975943,135.7715559,2,0,33,45,2,51,9
id_65,YASAKA HOUSE,京都市東山区下河原通八坂鳥居前下る上弁天町４２９番地１,東山区,簡易宿所,H28.6.27,35.0003552,135.7779539,18,0,0,41,3,26,1
id_66,香柏　高台寺,京都市東山区下河原通八坂鳥居前下る上弁天町４２８番地４,東山区,簡易宿所,R6.3.29,35.0001654,135.7784675,15,6,18,66,0,54,8
id_67,東寺道ＲＯＪＩ,京都市南区東九条北烏丸町４番地２,南区,簡易宿所,R7.3.3,34.9818133,135.7586933,0,6,11,26,0,29,0
id_68,ホテル日航プリンセス京都,京都市下京区東洞院通仏光寺下ル高橋町630-3番地,下京区,旅館・ホテル,H16.1.26,35.0005852,135.7607391,10,26,52,96,18,134,16
id_69,竹隠東福,京都市東山区本町十丁目１７６番地６,東山区,簡易宿所,H29.4.26,34.9836463,135.7699357,1,1,1,24,0,7,4
id_70,「京の温所」御幸町夷川,京都市中京区御幸町通夷川上る松本町５７４番地,中京区,簡易宿所,H30.11.14,35.0151024,135.7662271,6,90,18,118,1,128,4
id_71,離宮庵　京都西京極,京都市右京区西京極東向河原町１０番地５,右京区,簡易宿所,R2.1.23,34.9858717,135.7186166,13,5,11,76,18,65,6
id_72,,京都市伏見区深草一ノ坪町３６番地１－２,伏見区,施設外玄関帳場,,34.968718,135.7689853,2,2,2,39,0,23,0
id_73,Ｋｕｒａｋｉ－ａｎ（蔵輝庵）,京都市南区西九条池ノ内町９４番地２,南区,簡易宿所,R5.4.5,34.9830095,135.7533387,0,0,1,16,0,15,0
id_74,松春,京都市東山区下河原通八坂鳥居前下る下河原町463,東山区,旅館・ホテル,S42.10.21,35.0000233,135.7795767,4,7,5,91,1,20,2
id_75,ゲストハウス京都駅前,京都市南区東九条東岩本町１８番地６,南区,簡易宿所,R7.2.3,34.9839657,135.7654215,10,17,47,71,4,86,0
id_76,喜楽・翡翠,京都市南区東九条宇賀辺町４８番地２,南区,簡易宿所,R2.2.13,34.9779937,135.7654364,9,40,100,77,4,207,2
id_77,Ｐｒｅｍｉｕｍ　Ａｐａｒｔ　ＭＯＮｄａｙ　京都五条,京都市下京区五条通堺町西入塩竈町３８７番地１,下京区,簡易宿所,R7.5.16,34.9964626,135.764348,2,38,9,85,18,84,6
id_78,京照庵,京都市中京区壬生高樋町６４番地５,中京区,簡易宿所,R2.7.9,35.0012765,135.7391509,0,1,0,26,0,3,0
id_79,大原宿,京都市中京区両替町通二条上る北小路町１００番地１,中京区,簡易宿所,H31.1.31,35.0139502,135.7589382,2,31,4,47,0,38,0
id_80,雲・小川,京都市下京区三ノ宮町通上ノ口上る岩滝町２１５番地,下京区,簡易宿所,H29.6.19,34.9933074,135.7660937,0,6,0,30,0,7,0
id_81,京恋　礼清水,京都市東山区柿町通大黒町西入東川原町５２５番地南側,東山区,簡易宿所,R1.5.20,34.9970828,135.7707124,30,8,35,80,1,89,15
id_82,エポックイン伏見稲荷,京都市伏見区深草フケノ内町１２番地８,伏見区,簡易宿所,H31.2.12,34.967676,135.7677138,6,7,36,75,8,66,8
id_83,Ｈｅｌｌｏ　Ｈｏｓｔａｌ,京都市下京区寺町通五条上る西橋詰町７６３番地１,下京区,簡易宿所,H29.9.20,34.9969461,135.7671583,5,12,47,43,5,72,2
id_84,Ａ－Ｓｔｙｌｅ　Ｋｙｏｔｏ,京都市南区東九条南山王町４９番地３,南区,簡易宿所,H29.1.12,34.9817997,135.7637507,2,6,6,22,0,21,0
id_85,孫橋三条京阪,京都市左京区川端より一筋東三条上る一筋目東入超勝寺門前町９４番地,左京区,簡易宿所,R7.8.18,35.0100766,135.7744168,4,25,3,39,1,65,0
id_86,ヒルトン京都,京都市中京区河原町通二条下る二丁目下丸屋町４１６番地,中京区,旅館・ホテル,R6.8.28,35.0097433,135.7692329,0,10,12,41,0,25,2
id_87,無憂舎,京都市東山区渋谷通本町東入三丁目上新シ町３６７番地３,東山区,簡易宿所,H31.1.21,34.9936296,135.7735187,23,8,64,88,4,101,1
id_88,ＥＬＩＴＥ　ＩＮＮ　ＫＹＯＴＯ　ＳＴＡＴＩＯＮ,京都市下京区東堀川通下魚ノ棚下る鎌屋町３番地，４番地，５番地，６番地,下京区,旅館・ホテル,R2.12.15,34.9961959,135.75972,27,23,39,65,40,132,1
id_89,ＭＹＴＨ－ＣＬＵＢ,京都市伏見区竹田東小屋ノ内町６５番地,伏見区,旅館・ホテル,H22.12.27,34.9519252,135.7496388,7,8,55,90,10,103,11
id_90,ゲストハウス蘭子ＡＩＫＯ,京都市南区東九条東御霊町３４番地３,南区,簡易宿所,R2.5.12,34.9792178,135.7635236,9,8,24,61,2,50,2
id_91,谷町君星屋　城下の宿,京都市中京区猪熊通六角下る六角猪熊町６１１番地２,中京区,簡易宿所,R3.4.16,35.0067751,135.7504696,1,12,0,27,0,33,0
id_92,和庵,京都市南区東九条北烏丸町８番地９,南区,簡易宿所,H29.3.23,34.9813823,135.7593955,11,12,41,75,1,151,2
id_93,日々　タウンハウス,京都市上京区仁和寺街道御前通西入下横町１９９番地２１,上京区,簡易宿所,H29.12.28,35.0240603,135.7329914,124,2,4,81,1,164,3
id_94,ゲストハウス　美盧内田町邸,京都市南区八条内田町９３番地４,南区,簡易宿所,H30.3.13,34.9801187,135.7453708,9,11,34,56,2,97,0
id_95,京の宿　結,京都市上京区竹屋町通千本東入主税町８１２番地２１,上京区,簡易宿所,R7.9.9,35.0156691,135.7433166,48,20,27,82,10,105,0
id_96,夢住凛　ｍｕ　ｊｕ　ｒｉｎ,京都市左京区岡崎徳成町７番地６,左京区,簡易宿所,R3.3.22,35.0137868,135.7771488,8,0,4,54,0,25,8
id_97,Ｇｕｅｓｔ　Ｈｏｕｓｅ　Ｏｎｅ　Ｍｏｒｅ　Ｈｅａｒｔ　ａｔ　Ｆｕｓｈｉｍｉ　Ｉｎａｒｉ,京都市伏見区深草稲荷中之町５７番地、深草一ノ坪町９番地１,伏見区,簡易宿所,R5.1.17,34.9683103,135.7706208,0,0,5,62,1,16,8
id_98,陶然居,京都市東山区渋谷通本町東入四丁目鐘鋳町５６６番地２,東山区,簡易宿所,R2.5.14,34.9936766,135.7745361,0,0,12,48,3,15,0
id_99,,京都市伏見区深草町通町１８番地９,伏見区,施設外玄関帳場,,34.9604506,135.7690141,1,1,6,23,0,10,0
id_100,こまつ,京都市東山区祇園町南側５０１番地２,東山区,旅館・ホテル,S37.8.7,35.0022341,135.778651,0,0,1,27,1,13,2
id_101,Ｗｅｓｔ　Ｊａｐａｎ　六波羅Ⅲ,京都市東山区六波羅裏門通三盛町１６８番地１,東山区,簡易宿所,H29.2.2,34.9963092,135.7734585,1,2,2,20,0,15,4
id_102,慶有魚　葵,京都市東山区八坂塔之下星野町８８番地１３,東山区,簡易宿所,R1.10.15,34.9985747,135.7780523,0,6,3,73,9,20,0
id_103,龍門客桟,京都市山科区大塚高岩２番地４２,山科区,簡易宿所,H31.4.5,34.9799091,135.8299363,0,6,0,44,0,54,4
id_104,園ハウス２階,京都市東山区建仁寺町四条下る四丁目小松町５６３番地１２,東山区,簡易宿所,H28.2.15,35.0002227,135.7749971,19,0,3,66,3,30,1
id_105,Ａｋｉ,京都市上京区油小路通一条上る二丁目革堂西町５３０番地，５２８番地１,上京区,簡易宿所,H28.9.9,35.0273494,135.7531906,11,60,5,83,2,91,1
id_106,京町家雅　宮木邸,京都市中京区姉小路通油小路東入宮木町４６５番地,中京区,簡易宿所,H29.6.29,35.0096886,135.7540741,1,1,1,36,0,21,0
id_107,京町家　大徳寺,京都市北区紫野上築山町２９番地４,北区,簡易宿所,R1.10.11,35.0403164,135.745545,13,6,1,58,0,22,0
id_108,旅籠　近江屋,京都市右京区京北周山町下台１番地４,右京区,簡易宿所,R2.2.13,35.156587,135.6320587,10,35,13,85,15,87,6
id_109,,京都市南区西九条南田町６９－２,南区,施設外玄関帳場,,34.9771641,135.7485208,4,4,16,35,1,27,0
id_110,あおしだ,京都市下京区諏訪開町１番地１５,下京区,簡易宿所,H28.2.19,34.9908996,135.7473387,1,5,7,24,3,17,0
id_111,慶有魚・石塀,京都市東山区広道通松原上る五丁目月見町１９番地１０,東山区,簡易宿所,H31.4.4,35.0012658,135.7780465,7,2,1,38,0,15,4
id_112,洛床　桃,京都市中京区西ノ京船塚町１２番地３,中京区,簡易宿所,R2.4.24,35.0118248,135.7370065,1,1,3,28,0,13,0
id_113,谷町君　星屋旅館　東山望月居,京都市東山区鞘町通五条下る二丁目大阪町３６３番地　他,東山区,簡易宿所,R5.2.22,34.9940007,135.7688432,101,1,5,96,4,181,30
id_114,ゲストハウス御影軒　純の子,京都市南区唐橋井園町５２番地８,南区,簡易宿所,H30.8.13,34.9820777,135.7403743,2,20,8,97,4,86,0
id_115,あけくれ京都白川,京都市東山区三条通南裏二筋目白川筋西入堤町４９２番地,東山区,旅館・ホテル,R7.11.28,35.0085441,135.7801022,23,1,49,77,4,97,8
id_116,アゴーラ　京都烏丸,京都市下京区西洞院通四条下る妙伝寺町７０１番地１,下京区,旅館・ホテル,R3.4.26,35.0031895,135.7548472,16,29,55,94,22,131,8
id_117,Ｇｒａｎｄ　ｌａ　ｉｎｎ　ｗｅｓｔ,京都市南区八条寺内町１６番地４、１６番地５（西側）,南区,簡易宿所,R6.1.19,34.9825283,135.7457118,2,20,49,84,1,212,4
id_118,風神,京都市下京区西七条東石ケ坪町１６番地,下京区,簡易宿所,H28.9.16,34.9924431,135.7352209,0,0,11,32,5,24,1
id_119,えびす旅館,京都市南区東九条中殿田町16番2,南区,旅館・ホテル,H27.3.19,34.9813828,135.7569108,3,20,143,101,6,180,3
id_120,ＮＡＺＵＮＡ　京都　椿通　ＨＡＮＡ－７,京都市下京区高辻通大宮西入坊門町８３６番地７,下京区,簡易宿所,R2.3.31,34.9994568,135.748681,6,4,39,55,15,65,1
id_121,民泊藤城－京都店,京都市南区東九条西札辻町４０番地１,南区,簡易宿所,R5.5.25,34.9764396,135.7616966,2,18,47,93,4,104,3
id_122,京都八坂の町家　和“ＮＡＧＯＭＩ”,京都市東山区八坂鳥居前清井町４８９番地４,東山区,簡易宿所,H29.11.21,35.0018314,135.7779808,32,1,4,109,4,51,2
id_123,ホテルエクセレンス・円町駅前,京都市中京区西ノ京円町３０の２番地,中京区,旅館・ホテル,H29.8.14,35.0184094,135.7324482,10,0,0,42,3,30,1
id_124,泊まり木,京都市東山区泉涌寺五葉ノ辻町２０番地２,東山区,簡易宿所,H29.5.31,34.9823319,135.7716948,1,3,0,25,1,9,2
id_125,十六夜　ｉｚａｙｏｉ,京都市上京区芦山寺通千本東入二丁目西芦山寺町９０番地１,上京区,簡易宿所,H29.6.2,35.035223,135.7425671,13,4,17,42,0,59,0
id_126,出雲荘,京都市東山区六波羅裏門通南二丁目門脇町１９２番地,東山区,簡易宿所,R5.3.8,34.9958291,135.773278,13,13,0,55,2,35,1
id_127,リッチモンドホテルプレミア京都駅前,京都市下京区油小路通木津屋橋下る北不動堂町５６５番地３,下京区,旅館・ホテル,H31.4.17,34.9873245,135.7545555,2,38,7,77,3,62,8
id_128,浦島,京都市東山区八坂新地富永町137,東山区,旅館・ホテル,S29.12.27,35.0042206,135.7736669,5,1,34,86,1,52,2
id_129,福田寺ゲストハウス,京都市下京区高倉通松原下る西入福田寺町５０番地２,下京区,簡易宿所,H30.10.10,34.9979127,135.7623631,1,0,0,17,1,3,0
id_130,宿屋　西陣荘,京都市上京区元誓願寺通油小路西入西町458,上京区,旅館・ホテル,S38.11.5,35.0288102,135.752918,25,29,2,58,0,59,2
id_131,悠然居,京都市中京区壬生辻町５３番地７,中京区,簡易宿所,H31.2.13,35.0004079,135.7428052,2,14,15,50,10,77,0
id_132,京蘭‐鏡月邸,京都市下京区松原通堺町東入杉屋町２８５番地４,下京区,簡易宿所,H30.1.12,34.9991968,135.7635963,8,0,0,34,0,17,0
id_133,ＳＨＩＮ,京都市下京区中堂寺南町５９番地７，５９番地８,下京区,簡易宿所,H29.9.21,34.996385,135.7402631,0,0,11,30,3,20,2
id_134,民宿　わらびの里,京都市右京区北嵯峨六代芝町24-1,右京区,簡易宿所,S50.7.12,35.0293785,135.6881175,5,10,0,48,5,25,0
id_135,ＨＯＴＥＬ　ＬｉＶＥＭＡＸ　ＢＵＤＧＥＴ　京都駅前,京都市下京区七条通新町西入夷之町７１３番地,下京区,簡易宿所,R2.1.9,34.9888535,135.7562818,14,35,10,112,48,233,8
id_136,四季々々,京都市中京区先斗町通三条下る二丁目若松町１３７番地１０,中京区,簡易宿所,H30.8.24,35.0074532,135.7710732,12,10,5,39,3,35,1
id_137,東籬Ａｎｎｅｘ,京都市上京区笹屋町通千本西入笹屋四丁目２８９番地,上京区,簡易宿所,H30.4.27,35.0281957,135.7207937,40,1,20,67,0,75,0
id_138,紡　七条鍵屋町　北棟,京都市下京区若宮通正面下る鍵屋町６４５番地１,下京区,簡易宿所,R2.4.8,34.9905691,135.7561024,12,4,7,72,15,46,4
id_139,,京都市伏見区下鳥羽但馬町１５２番地,伏見区,施設外玄関帳場,,34.9322576,135.7497555,22,9,3,53,0,44,4
id_140,樂安居　池ノ内町　梅,京都市南区西九条池ノ内町９３番地９,南区,簡易宿所,R5.12.5,34.983226,135.7532755,14,27,77,103,4,124,1
id_141,RESISTAY PALACE GATE Annex,京都市中京区麩屋町通二条上る布袋屋町４９０番地２,中京区,簡易宿所,R6.7.17,35.0148813,135.7656119,32,7,2,96,11,73,3
id_142,清水山荘,京都市東山区清水三丁目341番地の1,東山区,簡易宿所,H5.10.14,34.9977305,135.7813051,1,2,9,34,1,18,2
id_143,京宿家　格致あさぎ庵,京都市下京区醒ケ井通綾小路下る要法寺町４３２番地１,下京区,簡易宿所,H29.10.3,34.998979,135.7553069,22,4,36,62,7,73,0
id_144,ｏｔｈｅｒｓ－ｋｙｏｔｏ,京都市伏見区帯屋町９１７番地,伏見区,簡易宿所,R7.10.22,34.9342314,135.7548896,16,6,0,41,0,37,9
id_145,ロータリーマンション修学院イン京都,京都市左京区山端川原町７番地７　１階,左京区,簡易宿所,H28.10.20,35.0501795,135.7900842,0,2,18,45,1,33,9
id_146,一富士,京都市東山区祇園町南側570-1,東山区,旅館・ホテル,S26.8.4,35.0031213,135.7751197,3,3,6,20,0,17,4
id_147,Ｋｙｏｔｏ　Ｍａｃｈｉｙａ　福音　「琵琶」,京都市中京区六角通新町西入西六角町１０５番地３（東から１軒目）,中京区,簡易宿所,H29.7.24,35.0076296,135.7559855,0,4,1,59,21,30,2
id_148,,京都市中京区西ノ京永本町１６番地,中京区,施設外玄関帳場,,35.0120809,135.7385701,0,23,1,58,6,129,1
id_149,ブリオ,京都市伏見区竹田西小屋ノ内町２６番地,伏見区,旅館・ホテル,S58.11.17,34.9520641,135.7472981,6,2,16,22,1,29,2
id_150,Ｋａｍｏｎ　Ｉｎｎ　Ｔｏｊｉ　Ｈｉｇａｓｈｉ,京都市南区東寺東門前町５８番地,南区,簡易宿所,H30.1.12,34.9831949,135.7495318,1,1,0,38,2,8,1
id_151,眞松庵,京都市左京区岡崎円勝寺町９１番地７８，９１番地５,左京区,旅館・ホテル,R4.4.28,35.0108671,135.7836806,3,5,55,94,22,109,2
id_152,Ｃｌｏｓｅ　ｔｏ　Ｋｙｏｔｏ　Ｓｔａ．ＨＧ５,京都市南区東九条西山王町３番地２０，４番地　５階,南区,簡易宿所,H30.8.22,34.9820291,135.7600808,1,1,12,39,3,31,0
id_153,京町家　古今 東山,京都市東山区正面通本町東入茶屋町５１７番地６,東山区,簡易宿所,H27.7.10,34.9912973,135.7706023,0,0,1,31,1,11,0
id_154,ハートンホテル京都,京都市中京区東洞院通押小路下ル船屋町４０５,中京区,旅館・ホテル,H8.2.28,35.0117877,135.760698,13,3,0,64,4,32,0
id_155,京蘭　無月邸,京都市中京区西ノ京池ノ内町１６番地３２,中京区,簡易宿所,R6.10.9,35.0106289,135.746597,32,131,14,113,2,295,3
id_156,戸戸家　泉涌寺（CoCo House Sennewji）,京都市東山区泉涌寺東林町２１番地２,東山区,簡易宿所,H28.9.16,34.981399,135.7759938,7,2,0,43,0,14,0
id_157,ＧＯＥＭＯＮ,京都市南区東九条東山王町１７番地１０,南区,簡易宿所,H29.8.14,34.9838128,135.7620832,1,12,41,70,9,168,0
id_158,出水町家,京都市上京区下立売通智恵光院西入下丸屋町５１２番地,上京区,簡易宿所,H25.9.18,35.0198526,135.7458377,48,15,27,91,21,116,2
id_159,Ｗａｋａ　Ｋｙｏｔｏ　Ｋａｗａｒａｍａｃｈｉ,京都市下京区河原町通松原上る二丁目富永町３４９番地６,下京区,簡易宿所,R5.3.24,35.0012531,135.768581,4,20,0,42,13,48,0
id_160,ロワジールホテル クラシックガーデン 京都三条,京都市中京区三条通烏丸西入御倉町８０番地,中京区,簡易宿所,R6.10.30,35.0083578,135.7587624,27,75,9,87,8,168,0
id_161,Ｒｕｍａｈ　Ｋｙｏｔｏ　Ｙｕ　“祐”　京都の家,京都市左京区田中南大久保町２８番地,左京区,簡易宿所,R2.2.21,35.034378,135.7787316,14,0,4,53,1,54,4
id_162,東山　四季花木,京都市東山区三条大橋東六丁目今小路町８５番地１,東山区,簡易宿所,R1.9.3,35.0092719,135.7798522,25,0,16,73,0,42,0
id_163,合資会社晴鴨樓,京都市東山区問屋町五条下る三丁目西橘町467,東山区,旅館・ホテル,S21.2.16,34.9945623,135.7683248,3,1,3,80,3,13,2
id_164,坂の上宿,京都市東山区渋谷通大和大路東入二丁目妙法院前側町４２８番地２,東山区,簡易宿所,R6.4.30,34.9913965,135.7739953,3,3,18,74,2,39,6
id_165,ｓａｎｓｕｉ　二条城,京都市中京区姉小路通油小路東入宮木町４６２番地,中京区,簡易宿所,R6.10.30,35.0098579,135.7540088,9,1,2,28,4,18,0
id_166,清和荘,京都市伏見区深草越後屋敷町8,伏見区,旅館・ホテル,S34.2.10,34.9490752,135.7624448,44,8,10,82,30,126,11
id_167,笹舟庵,京都市北区紫野北舟岡町18番地10,北区,簡易宿所,H28.1.29,35.0368644,135.741207,26,0,1,49,1,30,1
id_168,三塔庵,京都市東山区清閑寺霊山町１９,東山区,簡易宿所,H4.8.25,34.9979581,135.7827044,7,0,0,34,2,11,0
id_169,ロテル・デ・フルール京極,京都市中京区新京極通三条下る東入桜之町412番地,中京区,旅館・ホテル,H17.11.28,35.0077574,135.7676755,3,0,2,23,0,7,0
id_170,エムズホテル　五条ＮＡＧＩＮＡＴＡＧＩＲＩ,京都市下京区万寿寺通室町西入長刀切町２１１番地１,下京区,簡易宿所,R2.5.12,34.9976204,135.7577863,10,0,0,76,12,26,4
id_171,ＦＵＳＨＩＭＩ　ＩＮＡＲＩ　ＩＮＮ,京都市東山区福稲下高松町１９番地６,東山区,簡易宿所,R1.11.19,34.9735248,135.7688432,21,14,3,74,9,78,30
id_172,リノ　ホテル　京都Ｒｈｉｎｏ　Ｈｏｔｅｌ　Ｋｙｏｔｏ,京都市右京区西院三蔵町１７番地,右京区,旅館・ホテル,H18.11.13,35.0026753,135.7316603,0,0,1,22,0,2,0
id_173,枳殻邸別館,京都市下京区間之町通上珠数屋町下る打越町３１７番地,下京区,旅館・ホテル,R3.9.24,34.9920694,135.7620206,1,0,24,66,0,62,0
id_174,ホテルジャパネスク京都駅ＺＥＱＵＵ,京都市南区東九条東岩本町２番地，２番地９，２番地１０２番地１１，２番地１２，２番地１９,南区,旅館・ホテル,H30.11.30,34.9823609,135.764568,0,4,14,36,1,45,1
id_175,Ｇｕｅｓｔ　Ｈｏｕｓｅ　Ｏｎｅ　Ｍｏｒｅ　Ｈｅａｒｔ  ａｔ　Ｋｙｏｔｏ　Ｓｔａｔｉｏｎ　Ｓｏｕｔｈ　６,京都市南区西九条池ノ内町８３番地２,南区,簡易宿所,R5.2.3,34.9834321,135.7530346,9,11,7,79,0,39,7
id_176,梅町屋　いなり,京都市伏見区深草鈴塚町１番地３０,伏見区,簡易宿所,R5.8.31,34.9697383,135.7679336,8,0,11,33,0,20,0
id_177,ＺＥＮＪＩ町家六堀,京都市下京区油小路通六条上る卜味金仏町１７７番地８,下京区,簡易宿所,R5.7.19,34.9942085,135.7533757,9,23,7,86,48,90,0
id_178,マガザンキョウト,京都市上京区椹木町通大宮西入中書町６８５番地１,上京区,簡易宿所,H30.9.13,35.018819,135.74817,3,0,12,47,1,43,1
id_179,花喜屋,京都市東山区五条橋東六丁目583番地101,東山区,簡易宿所,H16.5.10,34.9955844,135.7795095,27,1,39,86,6,112,30
id_180,ホステルイン京都祇園,京都市東山区新門前通大和大路東入二丁目中之町２４１番地,東山区,簡易宿所,R1.11.27,35.0061116,135.7759511,6,0,1,27,1,14,2
id_181,国立京都国際会館　ロッジ,京都市左京区岩倉大鷺町422,左京区,旅館・ホテル,S62.4.3,35.0610006,135.7831582,6,36,3,45,1,54,1
id_182,,京都市中京区壬生相合町１５番地３,中京区,施設外玄関帳場,,34.9997975,135.7456719,4,1,1,27,0,18,0
id_183,ブティックホテルもしもしピエロ,京都市伏見区竹田田中殿町88番地,伏見区,旅館・ホテル,H13.2.8,34.953576,135.7485074,60,25,64,112,1,180,15
id_184,Ｍｉｎｎ　三条,京都市東山区三条通大橋東入三町目１８番地,東山区,簡易宿所,R5.10.2,35.0093074,135.7729817,5,1,34,95,4,75,11
id_185,京の宿ＡＺＵ（西大路）,京都市下京区七条御所ノ内南町９３番地１　１階,下京区,簡易宿所,H30.1.19,34.9839741,135.7330797,3,8,3,39,0,25,0
id_186,黙然居,京都市中京区西ノ京左馬寮町１１番地５,中京区,簡易宿所,H31.4.17,35.0161787,135.7368307,3,26,24,82,8,113,0
id_187,京の宿　清水　想　　桜,京都市東山区八坂塔ノ下星野町８８番地２（南棟）,東山区,簡易宿所,R7.1.27,34.9984946,135.7784527,77,8,25,82,4,138,11
id_188,,京都市中京区西ノ京職司町５５番地,中京区,施設外玄関帳場,,35.0113229,135.7438334,3,21,9,66,0,37,0
id_189,京町家Ｇｕｅｓｔ　ｈｏｕｓｅ　Ｖｅｎｔｅｎ,京都市上京区猪熊通中立売下る猪熊一丁目３４７番地,上京区,簡易宿所,H22.8.12,35.0244856,135.750442,32,2,2,66,4,42,0
id_190,光雲寺　看月亭,京都市左京区南禅寺北ノ坊町１０番地,左京区,簡易宿所,H29.10.20,35.0168126,135.7957156,1,0,16,34,5,29,2
id_191,京都デジタルノマドワークベース　伏見稲荷,京都市伏見区深草フケノ内町１４番地５,伏見区,簡易宿所,H29.12.5,34.9674573,135.7676421,8,1,0,26,0,11,0
id_192,ＵＮＫＮＯＷＮ　ＫＹＯＴＯ　北棟,京都市下京区西木屋町通五条下る七条新地平居町５５番地２,下京区,簡易宿所,R2.2.10,34.9947129,135.7661071,2,44,64,89,18,134,6
id_193,慶有魚　天羽,京都市下京区東中筋通五条上る天使突抜二丁目３９５番地１,下京区,簡易宿所,R6.12.25,34.9970777,135.7541253,2,38,136,108,48,236,8
id_194,ＫＹＯＵＧＥＴＳＵ－ＡＮ　梟月庵,京都市南区吉祥院九条町４４番地７,南区,簡易宿所,H30.9.28,34.9777193,135.7339059,1,0,31,67,4,45,7
id_195,長安宿・京都・東山,京都市東山区三条通南三筋目西入進之町５９１番地１,東山区,簡易宿所,R7.4.14,35.0080738,135.7775807,12,0,1,48,3,25,1
id_196,やまがた　京町旅籠　西陣,京都市北区紫野下柏野町６番地９,北区,簡易宿所,H30.4.5,35.0337158,135.7371808,12,1,1,48,0,14,0
id_197,アパホテル〈京都駅前中央口〉,京都市下京区東洞院通七条下る塩小路町５３３番地２，５３３番地３，５３３番地,下京区,簡易宿所,R1.6.7,34.9879364,135.7608741,13,32,55,69,15,137,4
id_198,季楽　京都　東山,京都市東山区三条通北裏白川筋東入る堀池町３７９番地２,東山区,簡易宿所,R1.5.15,35.0098632,135.781658,32,9,26,97,5,85,2
id_199,Ｋｅｎｋｕｎ　Ｈｏｕｓｅ,京都市北区紫野西藤ノ森町１５番地３,北区,簡易宿所,R2.3.18,35.0386664,135.7462777,34,21,2,98,5,65,3
id_200,Ｔｈｅ　ＧｒａｎｄＷｅｓｔ　Ａｒａｓｈｉｙａｍａ,京都市西京区嵐山上海道町４８番地，４８番地３２，６５番地１,西京区,簡易宿所,H29.8.31,35.0081794,135.6816708,56,1,27,83,22,114,6
id_201,LJ Inn Fushimi Inari I,京都市伏見区深草町通町９番地１２,伏見区,簡易宿所,R1.9.18,34.960353,135.7702657,40,6,6,84,1,64,2
id_202,山田屋旅館,京都市下京区不明門通正面上る亀町６番地,下京区,旅館・ホテル,H25.4.9,34.9918352,135.760484,0,0,7,28,0,11,1
id_203,払殿町ＩＮＮ,京都市左京区一乗寺払殿町３１番地１家屋番号１５番の２,左京区,簡易宿所,R7.2.12,35.0436524,135.7839732,3,0,32,32,0,49,2
id_204,祇園　紘,京都市東山区下河原通八坂鳥居前下る下河原町４７５番地,東山区,簡易宿所,H29.8.8,34.9999361,135.7788984,37,7,88,83,4,140,2
id_205,京都ゲストハウス,京都市中京区高瀬川筋四条上る紙屋町３７０番地　２F,中京区,簡易宿所,H30.7.27,35.0047258,135.7701208,3,4,0,72,0,32,3
id_206,八重家　泉殿町,京都市左京区吉田泉殿町６８番地２９,左京区,簡易宿所,H29.11.16,35.027447,135.7748835,1,0,1,19,0,6,1
id_207,桂川ハウス希,京都市南区久世大藪町５番地２，５番地８,南区,簡易宿所,R3.5.25,34.9620076,135.718159,0,0,0,25,2,3,0
id_208,Ｗｅｓｔ　Ｊａｐａｎ　六波羅　別邸,京都市東山区六波羅裏門通三盛町１６８番地１,東山区,簡易宿所,R5.11.2,34.9963092,135.7734585,21,1,22,65,4,52,2
id_209,ｍａｒｕｃｏ（マルコ）,京都市上京区日暮通丸太町下る南伊勢屋町７７３番地２二戸一棟長屋の北側,上京区,簡易宿所,H31.1.29,35.0169648,135.7474378,4,2,0,19,1,12,0
id_210,ＮＡＺＵＮＡ　京都　椿通　ＭＩＺＵ－３,京都市下京区高辻通大宮西入坊門町８３６番地３,下京区,簡易宿所,R2.6.10,34.9994568,135.748681,0,6,9,28,0,25,1
id_211,ゲストハウス　ＷＩＮＤ　ＶＩＬＬＡ,京都市東山区七条通鞘町西入日吉町２２６番地２，２２５番地３，２３２番地,東山区,簡易宿所,H28.4.28,34.9890708,135.7685068,3,5,19,67,3,45,9
id_212,京宿家　開智あんず庵,京都市下京区麸屋町通高辻下る鍵屋町２０２番２,下京区,簡易宿所,H25.4.10,34.9992749,135.7654549,12,5,100,76,18,145,6
id_213,京豊,京都市南区西九条池ノ内町１０１番地７,南区,簡易宿所,R7.1.6,34.9823416,135.7528118,32,17,49,68,1,102,3
id_214,弁天庵,京都市上京区千本通出水上る弁天町３０５番地９,上京区,簡易宿所,H28.11.8,35.0219123,135.7437608,11,4,7,40,0,38,0
id_215,観光旅館　嵯峨グレースホテル,京都市右京区嵯峨新宮町6番地1,右京区,旅館・ホテル,S61.3.3,35.0211894,135.686733,2,5,10,71,12,50,6
id_216,ゲストハウス　悠々,京都市南区東九条上御霊町５０番地,南区,簡易宿所,H29.2.28,34.9798028,135.7631124,0,3,2,33,0,23,0
id_217,桃李さくら庵２,京都市下京区梅小路東中町５９番地，６０番地１　２階,下京区,簡易宿所,H30.8.21,34.9844138,135.7367357,5,2,3,51,5,22,5
id_218,Ｔｈｅ　Ｌａｎｇｕａｇｅ　Ｎｅｓｔ,京都市北区紫竹高縄町７０番地１１,北区,簡易宿所,H30.4.27,35.045954,135.750627,23,43,1,90,1,77,0
id_219,忍　稲荷邸,京都市伏見区深草秡川町２２番地２５,伏見区,簡易宿所,R4.10.28,34.9673609,135.7679893,5,6,94,80,17,144,8
id_220,ＣＯＴＯ京都金閣寺,京都市北区紫野十二坊町８番地４６,北区,簡易宿所,H28.9.20,35.0382325,135.7401685,32,3,2,89,1,49,3
id_221,侍邸　京都清水　ｂｙ　宿ル　ＫＹＯＴＯ　ＨＡＮＡＲＥ,京都市東山区大仏馬町伏見街道東入五丁目常盤町４６８番地１３,東山区,簡易宿所,H30.2.27,34.9928319,135.7758144,19,8,3,76,4,54,8
id_222,Ｓｗｅｅｔ　Ｓｔａｙ　糖舎,京都市上京区浄福寺通一条下る東西俵屋町６５６番地２１,上京区,簡易宿所,R2.4.27,35.0255548,135.7437695,44,14,20,58,8,86,0
id_223,園ゲストハウス　一空,京都市東山区新宮川町通松原下る西御門町４４０番６,東山区,簡易宿所,H24.9.5,34.9985488,135.7708372,4,0,5,23,2,11,0
id_224,京おばたや,京都市上京区下立売通千本西入稲葉町４５２番地,上京区,簡易宿所,H30.3.14,35.0200675,135.7418547,19,7,0,50,4,40,0
id_225,愉庵,京都市上京区上長者町通千本東入北側信濃町４７７番地,上京区,簡易宿所,H30.5.7,35.023685,135.7434,42,5,0,45,3,60,0
id_226,京町家お宿　花,京都市下京区新町通六条下る艮町８６５番地１,下京区,簡易宿所,H27.8.14,34.9934017,135.7567539,0,8,2,37,5,27,0
id_227,ホテルステーション京都・西館,京都市下京区七条通烏丸東入真苧屋町２００番地,下京区,旅館・ホテル,H16.3.12,34.9894682,135.7602063,19,7,52,98,29,127,16
id_228,謝　四季軒　春,京都市南区西九条唐橋町３７番地（西側）,南区,簡易宿所,R2.4.10,34.981261,135.7514846,5,5,0,46,2,20,0
id_229,憩の家,京都市下京区新町通六条下る艮町８８５番地,下京区,簡易宿所,H18.12.4,34.9941021,135.7569945,16,35,67,106,18,146,1
id_230,パルセスイン京都,京都市伏見区下鳥羽東芹川町４５,伏見区,旅館・ホテル,H3.2.2,34.9430212,135.7510733,48,1,47,66,8,118,11
id_231,プライベートレジデンス宮川町　結,京都市東山区新宮川町通松原下る西御門町４５１番地１,東山区,簡易宿所,H27.11.24,34.9982498,135.770806,32,7,22,76,11,82,0
id_232,Ｃｏｎｎｅｃｔ　Ｉｎｎ　泉涌寺,京都市東山区泉涌寺東林町１０番地３,東山区,簡易宿所,H30.5.14,34.9813889,135.7758242,39,5,16,60,0,61,0
id_233,Ｇｕｅｓｔ　ｈｏｕｓｅ　Ｈａｒｕｅ，春枝,京都市中京区油小路通三条下る三条油小路町１７６番地３,中京区,簡易宿所,H31.3.15,35.0075266,135.7531906,35,4,1,73,6,55,2
id_234,京都雅竹,京都市東山区一橋野本町８７番地５３,東山区,簡易宿所,R1.7.29,34.9845242,135.769121,2,0,0,58,8,13,0
id_235,芝蘭会館別館（国際交流会館）,京都市左京区吉田牛ノ宮町11-1.11-2,左京区,旅館・ホテル,H1.12.27,35.0244248,135.7777634,0,0,11,32,0,31,0
id_236,Ｋｙｏｔｏ　Ｓａｍｕｒａｉ　Ｓｔａｙ,京都市中京区蛸薬師通大宮西入上る因幡町１１１番地　１階,中京区,簡易宿所,H29.10.11,35.0064467,135.7477027,30,61,9,83,1,130,2
id_237,茜　ａｋａｎｅ　京都二条,京都市上京区下立売通千本東入下る中務町４９０番地２３,上京区,簡易宿所,R6.11.7,35.018576,135.7443426,13,6,7,36,3,64,0
id_238,映月　ＷＥＳＴ　ｂｙ　宿ル　ＫＹＯＴＯ　ＨＡＮＡＲＥ,京都市東山区三条白川橋二筋目下る西入北木之元町５２０番地１０,東山区,簡易宿所,H29.8.10,35.0086238,135.778454,0,2,3,20,0,8,2
id_239,Ｃｏｌｏｕｒｓ,京都市下京区東中筋通高辻下る舟屋町660,下京区,簡易宿所,H26.7.10,34.9997517,135.7545936,11,4,5,74,12,37,4
id_240,ＫＹＯＴＯ　ＮＩＪＹＯ　Ｇｕｅｓｔ　Ｈｏｕｓｅ,京都市中京区聚楽廻西町１６３番地４２,中京区,簡易宿所,H29.12.26,35.0198327,135.7403187,1,16,7,31,0,40,0
id_241,京都ホワイトホテル,京都市下京区東洞院通七条下る東塩小路町５５６番地２,下京区,簡易宿所,R3.4.30,34.9878497,135.7620052,3,47,58,107,3,117,1
id_242,イビススタイルズ京都四条,京都市下京区四条通西洞院東入郭巨山町８番地,下京区,簡易宿所,R3.11.10,35.0034001,135.7556258,2,41,64,111,22,132,1
id_243,Ｃａｓａ　Ｖｅｒｄｅ　綠川亭,京都市南区東九条北松ノ木町３９番地２８,南区,簡易宿所,R3.5.17,34.9782547,135.7668568,18,43,8,91,5,103,9
id_244,京の宿　宝船,京都市下京区東中筋通松原下る天使突抜一丁目３６４番地１,下京区,簡易宿所,R4.1.11,34.998211,135.754477,5,12,3,55,1,35,0
id_245,天神前,京都市下京区松原通油小路東入天神前町３５０番地１,下京区,簡易宿所,H30.6.28,34.9989394,135.7550375,1,3,5,20,1,14,0
id_246,ＩＲＯＨＡ　ＳＴＡＹ　Ｋｙｏｔｏ　颯,京都市東山区三条通北裏白川筋東入堀池町３７３番地１（南側）,東山区,簡易宿所,R6.8.9,35.0104947,135.7818617,6,9,34,93,4,65,11
id_247,宿ルＫＹＯＴＯ　ＨＡＮＡＲＥ　月陰ノ宿,京都市東山区松原通広道東入北入月輪町９６番地１４,東山区,簡易宿所,R4.4.28,34.9977943,135.7774984,2,3,2,47,2,16,0
id_248,京蘭　祇園邸,京都市東山区新橋通大和大路東入三丁目林下町４２８番地,東山区,簡易宿所,R7.4.9,35.0068414,135.7807795,34,1,39,95,4,94,15
id_249,Ｇｌｏｂａｌ　Ｃａｒｅ　京都嵐山,京都市右京区太秦一ノ井町３０番地８,右京区,簡易宿所,H29.8.9,35.0162934,135.7097927,15,5,43,94,3,92,16
id_250,二条式部庵,京都市中京区西ノ京式部町２２番地５,中京区,簡易宿所,H29.2.13,35.0144137,135.7438348,25,5,12,80,30,74,0
id_251,梅湯の宿　ｂｙ　宿ル　ＫＹＯＴＯ　ＨＡＮＡＲＥ,京都市下京区東高瀬川筋上ノ口上る岩滝町１７５番地,下京区,簡易宿所,H30.10.5,34.9929641,135.7656753,10,10,2,46,1,34,0
id_252,Ｍｕｌａｎ　Ｓｔａｙ　松尾大社,京都市西京区松室河原町５番地８,西京区,簡易宿所,R7.9.8,34.9989834,135.6884872,19,9,0,54,7,57,2
id_253,夢路,京都市北区紫野中柏野町６２番地１６,北区,簡易宿所,H29.2.1,35.0353141,135.7385423,5,3,15,83,4,36,4
id_254,ひさのや,京都市左京区久多下の町229,左京区,簡易宿所,S60.5.7,35.2645299,135.8195218,1,10,22,45,13,79,1
id_255,ゲストハウスＧｏｌｄｂｉｒｄ,京都市上京区中立売通浄福寺西入加賀屋町４０９番地１,上京区,簡易宿所,R6.7.1,35.0252651,135.7450562,11,3,6,37,0,30,0
id_256,粟田口　三条坊山荘,京都市東山区粟田口三条坊町２番地２１,東山区,簡易宿所,R2.5.28,35.0080853,135.7849009,19,0,53,75,0,95,0
id_257,秋,京都市上京区下立売通千本東入田中町４７７番地１８（１階）,上京区,簡易宿所,R1.12.5,35.0205166,135.744427,205,3,34,102,10,298,3
id_258,修証殿,京都市伏見区醍醐伽藍町1,伏見区,簡易宿所,S51.2.26,34.9514157,135.8226008,40,1,47,71,10,112,11
id_259,ＴＨＥ　ＧＥＮＥＲＡＬ　ＫＹＯＴＯ　仏光寺新町,京都市下京区新町通綾小路下る船鉾町３８５番地,下京区,旅館・ホテル,R3.3.4,35.0020481,135.7567539,0,3,0,70,32,40,3
id_260,別邸　はつな,京都市上京区六軒町通五上る末広町４５番地（家屋番号　４２番　南側）,上京区,簡易宿所,R3.12.9,35.03123,135.7411237,0,0,4,23,0,6,0
id_261,京いすけ　百足屋町　Ｈｏｋｏｍａｃｈｉ,京都市中京区新町通錦小路上る百足屋町３７８番地１０,中京区,簡易宿所,H29.3.31,35.005778,135.7572219,4,4,10,70,8,48,0
id_262,Ｋ－ｙａｒｄ,京都市右京区嵯峨野宮ノ元町４番地１，４番地１４,右京区,簡易宿所,H23.4.11,35.0148572,135.6940491,14,41,49,118,18,131,1
id_263,ＭＩＭＡＲＵ ＳＵＩＴＥＳ 京都ＣＥＮＴＲＡＬ,京都市中京区衣棚通御池下る長浜町１５４番地３,中京区,旅館・ホテル,R3.8.23,35.0102823,135.757133,15,16,0,27,2,41,0
id_264,京蘭　風鈴邸,京都市東山区松原通大和大路東入二丁目轆轤町１０９番地,東山区,簡易宿所,R7.8.28,34.9977614,135.7747502,3,5,15,55,0,28,4
id_265,雲川居,京都市上京区下立売通智恵光院西入中務町４８６番地１２４,上京区,簡易宿所,R2.4.3,35.0184637,135.7448711,52,56,25,94,2,207,4
id_266,風雅別邸　四条大宮　藍,京都市中京区壬生坊城町８番地２２（南側）,中京区,簡易宿所,R5.8.29,35.004327,135.7470798,27,26,9,88,8,148,3
id_267,映己,京都市上京区千本通寺之内上る西五辻北町４５５番地２,上京区,簡易宿所,R1.6.27,35.0341519,135.7414655,56,32,3,73,8,116,7
id_268,よつき,京都市中京区猪熊通六角下る六角猪熊町６０２番地５,中京区,簡易宿所,R6.9.12,35.0063474,135.7501233,30,23,2,68,10,75,3
id_269,ホテル燈－ａｋａｒｉ－,京都市下京区大宮通五条下る二丁目東側堀之上町５０４番地,下京区,簡易宿所,R5.12.1,34.9952063,135.7493365,5,10,0,42,1,20,2
id_270,JAPANING　HOTEL　東山東福寺,京都市東山区今熊野椥ノ森町４３番地，４５番地５,東山区,簡易宿所,H28.11.14,34.983945,135.7737224,0,0,9,43,1,15,4
id_271,Ｓｔａｙ　ＳＡＫＵＲＡ・京都祗園北,京都市左京区古川町筋仁王門下る東門前町５２８番地７，５２８番地８,左京区,簡易宿所,H30.12.26,35.0105549,135.7780663,35,32,47,89,56,236,11
id_272,鴨川せせらぎ庵　菊,京都市下京区屋形町２０番地１（北から１軒目）,下京区,簡易宿所,R3.4.26,34.9827727,135.7674879,12,5,136,75,18,183,6
id_273,京乃彩,京都市伏見区深草西浦町三丁目１４番地６,伏見区,簡易宿所,H30.3.13,34.9616199,135.7656962,7,20,55,98,8,108,15
id_274,ブリオ（新館）,京都市伏見区竹田西小屋ノ内町２６番地,伏見区,簡易宿所,H19.9.5,34.9520641,135.7472981,169,8,191,95,10,389,2
id_275,澄庵－翔園,京都市中京区油小路通蛸薬師下る山田町５１５番地,中京区,簡易宿所,R7.10.14,35.0057746,135.7535266,3,14,9,57,1,65,0
id_276,八仙,京都市東山区高台寺南門通下河原東入桝屋町36,東山区,旅館・ホテル,S39.10.15,34.9985825,135.7814265,30,3,13,56,3,60,1
id_277,椿庵・京都,京都市中京区西ノ京御輿岡町２８番地,中京区,簡易宿所,H29.7.25,35.0213156,135.7270648,5,32,14,79,8,67,7
id_278,宿きらまち　Ｉ,京都市下京区綾小路通西洞院東入新釜座町７２２番地２,下京区,簡易宿所,R2.4.7,35.003279,135.756143,1,32,121,70,15,174,4
id_279,,京都市東山区三条通神宮道東入夷町１６６番地１５(１階),東山区,施設外玄関帳場,,35.0096718,135.7834493,65,1,26,72,9,127,22
id_280,雲井　清水,京都市東山区渋谷通東大路東入三丁目瓦役町５１２番地３,東山区,簡易宿所,H30.3.22,34.9919923,135.7783536,4,7,5,99,4,53,30
id_281,ＴＡＫＥＹＡ　ＨＯＮＫＡＮ,京都市上京区今出川通七本松西入真盛町７２９番地５,上京区,簡易宿所,H27.5.22,35.0297608,135.7379312,48,17,35,86,13,125,3
id_282,Ｋｙｏｔｏ　Ｍａｃｈｉｙａ　銭屋町　藍,京都市下京区的場通新町東入銭屋町２５８番地,下京区,簡易宿所,R1.10.24,34.9943675,135.757833,1,14,0,45,5,23,2
id_283,Ｓａｎｔｉａｇｏ　Ｇｕｅｓｔｈｏｕｓｅ　Ｋｙｏｔｏ,京都市東山区五条橋東六丁目５０３番地,東山区,簡易宿所,H25.3.29,34.9945068,135.7757409,35,0,0,51,0,42,1
id_284,ＳＡＫＵＲＡ　ＩＮＮ　２,京都市下京区油小路通綾小路下る風早町５６６番地１コーポ風早２０５,下京区,簡易宿所,R2.8.31,35.0020769,135.7534405,1,5,0,26,0,15,1
id_285,成就庵,京都市上京区丸太町通松屋町西入左馬松町７９４番地,上京区,簡易宿所,R1.9.17,35.0166572,135.7481284,4,0,16,62,8,52,2
id_286,株式会社　俵屋旅館,京都市中京区麩屋町通姉小路上る中白山町278,中京区,旅館・ホテル,S37.12.12,35.0102623,135.7659155,0,0,1,23,0,9,0
id_287,灯々屋,京都市下京区土手町通正面下る紺屋町３７４番地１,下京区,簡易宿所,R1.9.4,34.9915929,135.7645662,0,2,4,56,10,36,0
id_288,ホテルメルディア四条河原町,京都市下京区河原町通松原上る二丁目富永町３５４番地２，３５４番地３，３５４番地９,下京区,簡易宿所,R1.9.2,35.0009702,135.7682878,0,21,39,64,12,90,0
id_289,京屋,京都市中京区新シ町通三条下る下一文字町３２７番地,中京区,簡易宿所,R1.10.15,35.0077667,135.7495813,2,0,9,46,0,13,0
id_290,香柏　二条,京都市中京区西ノ京右馬寮町1番地２５,中京区,簡易宿所,H30.8.28,35.0157314,135.7376541,44,61,8,69,8,166,2
id_291,Ｂａｃｋｙａｒｄ　Ｆｏｘ,京都市下京区柳馬場通綾小路下る永原町１５３番地１２,下京区,簡易宿所,R5.8.14,35.001985,135.7635578,1,3,1,19,0,12,0
id_292,宿きらまち　Ａ,京都市下京区綾小路通西洞院東入新釜座町７２２番地８,下京区,簡易宿所,H29.2.13,35.0033565,135.7561985,0,0,5,23,1,11,0
id_293,ＳＵＮＲＩＳＥ　ＳＵＩＴＥＳ,京都市南区西九条南田町４３番地９,南区,旅館・ホテル,H29.3.23,34.9789012,135.748952,15,15,9,76,1,43,3
id_294,,京都市東山区福稲柿本町２番地７,東山区,施設外玄関帳場,,34.9815805,135.7684797,2,3,11,43,3,21,1
id_295,京乃怡,京都市南区東九条北松ノ木町３９番地１３,南区,簡易宿所,H27.6.10,34.978055,135.7668686,0,0,1,29,0,16,1
id_296,地蔵庵,京都市左京区新間之町通二条下る頭町３４８番地２,左京区,簡易宿所,H28.7.27,35.012898,135.7755356,6,23,4,66,1,83,6
id_297,漱石居,京都市東山区五条橋東六丁目５８３番地２１,東山区,簡易宿所,R5.8.29,34.9954419,135.7804449,71,20,25,77,1,150,11
id_298,ザ・セレクトン京都堀川三条,京都市中京区岩上通三条下る下八文字町６９２番地，６９４番地，６９４番地１,中京区,旅館・ホテル,H30.11.16,35.0079987,135.7513396,6,6,3,41,0,18,0
id_299,丸福樓別館,京都市下京区加茂川端正面上る平岡町３２６番地,下京区,旅館・ホテル,R4.3.28,34.9921571,135.766464,2,4,44,65,15,77,12
id_300,京宿しらさぎ,京都市下京区木屋町通五条下る都市町１４３番地２２,下京区,簡易宿所,H29.8.14,34.994488,135.767168,0,0,9,23,0,10,0
id_301,Ｃｌａｐ　Ｂａｒｄ　Ｉｎｎ,京都市上京区烏丸通今出川上る岡松町２６２番地３,上京区,簡易宿所,H29.2.1,35.0299541,135.7589753,22,0,0,19,0,22,0
id_302,メゾンドココ,京都市下京区花屋町通櫛笥西入薬園町１７０番地４,下京区,簡易宿所,H30.6.14,34.9925657,135.7469991,9,16,36,69,2,83,3
id_303,金太,京都市東山区新宮川町通松原下る西御門町４６２番地,東山区,簡易宿所,H23.6.24,34.9979111,135.7702892,35,6,3,74,8,61,4
id_304,Ｐｒｉｖａｔｅ Ｃｏｎｄｏ 半字（Ｂａｎｚｉ）,京都市南区東九条西山町１２番地３,南区,簡易宿所,R2.7.27,34.9773409,135.7554511,12,29,0,81,9,148,0
id_305,鈴　花屋町　朝霧２,京都市下京区二人司町６番地２０,下京区,簡易宿所,R5.12.1,34.9918702,135.7463887,10,29,107,77,48,217,6
id_306,京町家　叶う,京都市東山区三条通南裏二筋目白川筋西入堤町５１２番地６,東山区,簡易宿所,H28.10.18,35.0087529,135.7793059,6,1,40,91,13,62,2
id_307,Ｈｉｋａｒｉ　光　Ｈｏｕｓｅ,京都市上京区油小路通一条上る二丁目革堂西町５３０番地，５２８番地１４戸１棟長屋北側２軒目,上京区,簡易宿所,H29.10.4,35.0273494,135.7531906,0,0,18,55,17,67,2
id_308,大徳寺北側　清寂の家,京都市北区紫竹西南町37-13,北区,簡易宿所,H26.6.25,35.0467258,135.7471684,12,1,4,40,1,25,1
id_309,Ｖｉｌｌａ　法然院西,京都市左京区鹿ケ谷法然院西町２０,左京区,簡易宿所,H29.3.21,35.021892,135.7926236,2,83,7,86,18,119,2
id_310,ＫＯＹＡＳＵ　ＨＯＵＳＥ,京都市左京区北白川久保田町６４番地４,左京区,簡易宿所,H30.6.20,35.02899,135.7876406,4,8,12,36,5,35,4
id_311,Ｓｔａｙ　ＳＡＫＵＲＡ　Ｋｙｏｔｏ　龍,京都市下京区黒門通五条下る柿本町５９５番地１２３，５９５番地１２４,下京区,簡易宿所,H30.8.7,34.9941022,135.7495272,5,0,24,51,0,46,0
id_312,ホテルメルディア京都四条大宮,京都市下京区大宮通綾小路下る綾大宮町６６番地,下京区,旅館・ホテル,R4.12.20,35.0015005,135.7486338,2,0,6,26,8,17,0
id_313,Ｒ＆Ｒｕｎ　Ｋｙｏｔｏ　ｓｅｒｖｉｃｅｄ　ａｐａｒｔｍｅｎｔ＆ｓｕｉｔｅｓ,京都市中京区六角通柳馬場東入大黒町７２番地１京都六角Ｎビル５階,中京区,簡易宿所,H29.7.12,35.0071647,135.7645793,0,0,1,22,2,8,0
id_314,MYTH-Rinata,京都市伏見区竹田東小屋ノ内町62,伏見区,旅館・ホテル,H16.2.20,34.9518616,135.7493252,65,11,9,104,13,117,15
id_315,常盤庵,京都市東山区大仏馬町伏見街道東入五丁目常盤町４８１番地１４,東山区,簡易宿所,H29.5.15,34.9926648,135.7762131,25,7,60,99,4,111,11
id_316,ＭＲＦ,京都市下京区綾小路通寺町西入足袋屋町３３０番地４１階，２階,下京区,簡易宿所,H29.6.27,35.0023387,135.7664104,13,32,136,80,2,189,6
id_317,零　ＩＮＮ　二条城,京都市上京区松屋町通丸太町下る藁屋町５３５番地８２,上京区,簡易宿所,H30.12.13,35.0164295,135.7487515,66,7,0,46,4,107,0
id_318,うつろい京都まるたけ庵,京都市上京区丸太町通松屋町西入左馬松町７９３番地,上京区,簡易宿所,H29.4.26,35.0167271,135.7481668,11,3,0,30,3,19,0
id_319,京宿　丸京学林庵,京都市下京区東中筋通六条下る学林町３０９番地２,下京区,簡易宿所,H30.1.11,34.9927702,135.7547457,2,1,11,28,3,26,2
id_320,ＴＡＢＩＴＡＢＩ　ＳＴＡＹ　聚楽,京都市中京区聚楽廻西町１８８番地７２,中京区,簡易宿所,R2.9.8,35.0162174,135.739545,9,0,3,44,0,16,0
id_321,雲・小池,京都市中京区西ノ京池ノ内町２３番地５８,中京区,簡易宿所,H30.2.28,35.0095577,135.7454771,0,3,9,70,5,22,4
id_322,ＳＴＡＹ　ＩＮＮ　ＡＫＡＮＥ　京都駅,京都市南区西九条池ノ内町２９番地,南区,簡易宿所,R4.11.2,34.9838693,135.7528753,12,2,7,75,4,41,2
id_323,ゲストハウス東山　じゃお,京都市東山区今熊野南日吉町１４８－７５,東山区,簡易宿所,H25.10.18,34.984474,135.7800652,25,1,18,68,4,71,22
id_324,ＣＡＭＰＴＯＮ　ＫＩＹＯＭＩＺＵ　町家棟,京都市東山区八坂通下河原東入八坂上町３６８番地１,東山区,簡易宿所,H30.8.24,34.9980788,135.7800704,10,2,1,45,0,17,4
id_325,不頼庵　BRIAN,京都市東山区弓矢町６７番地１６,東山区,簡易宿所,H26.10.17,34.9983944,135.7733243,6,10,32,111,1,65,15
id_326,ＤＯＭＯ＋　五条七夜,京都市東山区大黒町通松原下る三丁目大黒町２９５番地２,東山区,簡易宿所,R7.10.30,34.996854,135.7710004,4,1,23,73,1,31,2
id_327,ＧＵＥＳＴ　ＨＯＵＳＥ　ＤＩＳＣＯＶＥＲＹ　ＳＨＩＰ,京都市南区西九条森本町５番地,南区,簡易宿所,H30.6.19,34.9720779,135.7488785,0,8,36,69,0,80,1
id_328,石原旅館,京都市中京区柳馬場姉小路上る柳八幡町76,中京区,旅館・ホテル,S33.5.28,35.00999,135.7641126,21,21,11,63,1,70,2
id_329,京のおおぞら 祇園 輝華,京都市東山区新門前通大和大路東入四丁目松原町２７６番地５,東山区,簡易宿所,R2.3.4,35.0058858,135.7779725,2,1,12,50,2,26,4
id_330,双宿（Ｓｏｕｓｙｕｋｕ）,京都市中京区壬生辻町３８番地２５,中京区,簡易宿所,R3.6.4,34.9996136,135.7431198,0,8,3,40,0,12,0
id_331,ひろ文,京都市左京区鞍馬貴船町８７番地,左京区,旅館・ホテル,H4.6.26,35.1222104,135.7621687,0,2,22,46,7,43,4
id_332,鳥居屋,京都市東山区一橋野本町７９番地２,東山区,簡易宿所,R3.3.15,34.9857822,135.7685809,27,9,4,93,4,55,11
id_333,松葉亭,京都市東山区下河原通八坂鳥居前下る三丁目南町４０９番地,東山区,旅館・ホテル,H14.6.12,34.9991291,135.7789578,0,0,0,18,0,2,0
id_334,ＭＡＤＯＫＡ　Ｋｙｏｔｏ　ｓｔａｔｉｏｎ　ｗｅｓｔ,京都市南区猪熊通八条上る戒光寺町１８８番地１、１８８番地８,南区,簡易宿所,R2.4.14,34.9847551,135.7506646,0,8,7,31,2,20,1
id_335,京の宿　祇園佐の,京都市東山区高台寺北門通下河原東入鷲尾町504,東山区,旅館・ホテル,S38.9.14,35.0016769,135.7792874,3,1,10,18,0,16,2
id_336,,京都市中京区六角通猪熊西入鍛冶屋町３５３番地,中京区,施設外玄関帳場,,35.0072621,135.7496093,3,3,1,20,1,9,0
id_337,ゲストハウス壬生三条,京都市中京区壬生天池町３２番地２６,中京区,簡易宿所,H28.3.22,35.0071643,135.7404399,34,29,13,104,11,115,1
id_338,料理旅館　花楽,京都市東山区園町南側４９９番地,東山区,旅館・ホテル,R4.9.30,34.9926102,135.7748632,21,14,27,83,1,80,11
id_339,Kujo Stays　松,京都市南区東九条中殿田町８番地,南区,簡易宿所,H28.7.29,34.9810998,135.7557207,0,2,4,55,2,13,4
id_340,ＨＯＴＥＬ　ＬｉＶＥＭＡＸ　ＢＵＤＧＥＴ　京都五条,京都市下京区猪熊通五条西入柿本町６９８－２，６９８－３,下京区,旅館・ホテル,H26.2.14,34.9960609,135.7505042,2,5,19,30,0,33,1
id_341,リーガロイヤルホテル京都,京都市下京区東堀川通塩小路下る松明町１番地,下京区,旅館・ホテル,H27.3.27,34.986713,135.7522534,6,14,34,69,2,59,0
id_342,お宿　東福寺２,京都市東山区福稲御所ノ内町７番地２８,東山区,簡易宿所,H29.6.22,34.9797402,135.7699052,19,10,0,57,0,32,1
id_343,ゲストハウス京洛や金閣寺,京都市北区平野宮西町５２番地,北区,簡易宿所,H30.1.12,35.0347212,135.7315723,1,0,2,30,1,8,0
id_344,東雲庵,京都市南区西九条西柳ノ内町３６番地１０,南区,簡易宿所,R5.9.29,34.9758694,135.7513867,1,1,4,56,0,22,0
id_345,ゲストハウス　みやこ,京都市上京区竹屋町通千本東入主税町９９２番地,上京区,簡易宿所,H29.7.25,35.0175127,135.7448119,19,0,11,56,5,53,0
id_346,南禅会館,"京都市左京区南禅寺福地町86,86-6,86-786-11,86-17,86-18",左京区,簡易宿所,H23.3.8,35.010899,135.7919382,9,23,121,73,0,166,9
id_347,京都糸屋ホテル,京都市下京区烏丸通高辻下る薬師前町７１２番地，７１１番地,下京区,旅館・ホテル,H25.1.28,34.999146,135.7593969,10,23,41,65,18,117,4
id_348,モダンハウス,京都市下京区二ノ宮町通正面下る上二之宮町３９８番地，４１８番地１２,下京区,簡易宿所,H30.10.17,34.9909033,135.7667602,0,0,1,18,0,8,1
id_349,,京都市下京区高倉通花屋町下る若松町４３３番地１,下京区,施設外玄関帳場,,34.9925195,135.7625031,0,0,0,56,18,21,2
id_350,二条凰庵,京都市上京区竹屋町通千本東入主税町１２１５番地１,上京区,簡易宿所,H28.3.10,35.0170742,135.7468963,40,15,22,69,8,88,0
id_351,カプセルホテル　漫遊堂,"京都市左京区田中西大久保町１４番地,１４番地２島田第２ビル　１F",左京区,簡易宿所,H29.7.28,35.037388,135.7814683,0,16,31,53,7,76,15
id_352,京都かまんざホテル,京都市中京区釜座通二条下る上松屋町７０２番地,中京区,旅館・ホテル,H30.4.26,35.0126462,135.755571,32,83,11,96,10,155,9
id_353,ゲストハウス　たきの,京都市上京区今小路通御前通西入紙屋川町１０１５番地３０,上京区,簡易宿所,R3.3.4,35.0276664,135.7340069,93,12,25,75,10,182,7
id_354,Ｅｎｓｏ　Ｍａｃｈｉｙａ,京都市上京区大宮通元誓願寺下る北之御門町５７３番地,上京区,簡易宿所,R1.10.17,35.0281742,135.7489888,2,0,5,35,0,15,0
id_355,ＺＥＮ,京都市伏見区深草泓ノ壺町７番地１,伏見区,簡易宿所,R1.9.19,34.9467554,135.7597048,0,0,7,26,2,13,2
id_356,ＢＪ　Ｆａｍｉｌｙ　Ｈｏｕｓｅ,京都市下京区河原町通七条上る住吉町３４５,下京区,簡易宿所,H23.3.7,34.9902363,135.7643863,11,21,107,76,15,156,0
id_357,京都ゲストハウスたい,京都市伏見区深草直違橋２丁目４４７番地６,伏見区,簡易宿所,H29.8.28,34.9543242,135.7697973,0,2,12,18,2,18,0
id_358,ＨＯＴＥＬこのへんのアジア,京都市伏見区羽束師菱川町３８５番地７,伏見区,簡易宿所,R5.3.15,34.9332648,135.7152095,32,5,36,69,0,87,0
id_359,宿きらまち　Ｅ,京都市下京区綾小路通西洞院東入新釜座町７２２番地４,下京区,簡易宿所,R1.7.29,35.0032015,135.7562168,13,35,158,95,25,326,6
id_360,ＮＩＣＯＨ　ＭＡＮＪＵＪＩ,京都市下京区高倉通松原下る西入福田寺町６０番地４,下京区,簡易宿所,R7.12.18,34.998058,135.7618077,27,61,6,72,2,116,4
id_361,京都鴨川のお宿　たまみ,京都市下京区二ノ宮町通七条上る下二之宮町439番地,下京区,簡易宿所,H28.3.9,34.9897919,135.7667602,5,2,4,47,7,29,5
id_362,ひいらぎ,京都市上京区千本通一条上る北伊勢殿構町６７５番地７,上京区,簡易宿所,H28.6.24,35.0268231,135.7428331,48,11,53,76,1,156,2
id_363,樂・唐橋町　順,京都市南区西九条唐橋町２２番地,南区,簡易宿所,R7.7.9,34.9810464,135.751534,6,1,24,62,0,33,0
id_364,Ｔｈｅ　Ｒｏｏｔ２　Ｈｏｕｓｅ　Ａｃｅ,京都市南区東九条南山王町９番地１,南区,簡易宿所,R6.3.27,34.9815423,135.7615948,9,14,0,66,0,61,0
id_365,宿ルＫＹＯＴＯ ＨＡＮＡＲＥ 奏ノ宿,京都市中京区壬生坊城町６６番地１６,中京区,簡易宿所,H30.7.31,35.005241,135.7466887,4,6,3,102,11,57,1
id_366,ｃｏｃｏｏｎ ｋｙｏｔｏ,京都市東山区一橋宮ノ内町７番地１６,東山区,簡易宿所,R1.7.18,34.9883001,135.7687537,0,3,12,51,0,31,15
id_367,Ｒａｋｕｔｅｎ　ＳＴＡＹ　Ｋｙｏｔｏ　Ｓｔａｔｉｏｎ,京都市南区東九条東岩本町１５番地,南区,旅館・ホテル,R3.4.5,34.9841234,135.7644547,2,17,73,94,1,158,0
id_368,ゲストハウス京和,京都市南区東九条北松ノ木町２９番地１０，４８番地９,南区,簡易宿所,H29.7.26,34.9795217,135.7665953,16,18,67,96,1,157,0
id_369,花築京都青楓,京都市右京区西院西三蔵町２５番地,右京区,簡易宿所,H30.12.27,35.0019349,135.7313292,0,0,7,33,0,12,2
id_370,桃夭庵,京都市南区東九条北松ノ木町３３番地２（東棟）,南区,簡易宿所,R4.10.6,34.9795006,135.7667078,0,0,1,24,0,8,0
id_371,松庵,京都市南区東九条松田町２２番地６,南区,簡易宿所,H30.1.5,34.9745761,135.7550601,2,3,0,27,0,7,0
id_372,ＴＨＥ　ＰＯＣＫＥＴ　ＨＯＴＥＬ　京都烏丸五条,京都市下京区五条通烏丸東入松屋町４２３番地,下京区,簡易宿所,R2.8.3,34.9964837,135.7603759,0,3,5,20,1,9,0
id_373,虹の家,京都市伏見区竹田中島町４番地６,伏見区,簡易宿所,H29.7.11,34.9635153,135.7595267,1,3,7,26,0,15,2
id_374,ドミール東洞院,京都市下京区東洞院通七条上る飴屋町２４３番地，２４５番地ドミール東洞院　１０６号室,下京区,簡易宿所,H29.9.20,34.9895752,135.761286,2,4,44,82,15,81,0
id_375,中村屋ゲストハウス円町別邸,京都市上京区下立売通御前通西入突抜町４３６番地,上京区,簡易宿所,H31.4.4,35.0202871,135.7347058,6,0,0,24,0,7,0
id_376,,京都市南区東九条上御霊町４０番地２（東側）,南区,施設外玄関帳場,,34.9798412,135.7637609,4,6,16,47,1,44,1
id_377,ＨＯＴＥＬ　ＩＭＡＧＩＮＥ　ＫＹＯＴＯ,京都市南区東九条北烏丸町１９番地１,南区,簡易宿所,H31.1.28,34.981724,135.7607703,13,17,64,88,5,127,3
id_378,清水の間,京都市下京区西木屋町通五条下る南京極町５９番地９,下京区,簡易宿所,H30.4.18,34.9943248,135.7663076,1,0,0,22,0,8,1
id_379,ひろや,京都市左京区鞍馬貴船町56,左京区,旅館・ホテル,S48.8.4,35.1223295,135.7634712,2,32,121,93,3,195,15
id_380,わじまや旅館,京都市下京区上珠数屋町通不明門東入高槻町３３９,下京区,旅館・ホテル,S54.8.21,34.9923741,135.7604825,4,10,18,41,1,45,0
id_381,,京都市南区西九条針小路町５５番地,南区,施設外玄関帳場,,34.9829605,135.7515617,1,2,9,27,0,24,0
id_382,洛庵．梅,京都市上京区今出川通御前通東入社家長屋町６９０番地３（２階・３階）,上京区,簡易宿所,R2.2.12,34.9872052,135.774454,36,12,22,76,25,104,0
id_383,心の郷・月,京都市伏見区深草鈴塚町２番地２０,伏見区,簡易宿所,R1.10.25,34.9692696,135.7680841,0,6,39,82,0,45,0
id_384,粟田口　宇庵　風,京都市東山区粟田口鍛冶町６番地,東山区,簡易宿所,H29.5.10,35.0087536,135.7849027,25,8,5,84,4,54,11
id_385,Ｗｕｚ　御所,京都市上京区椹木町通室町東入養安町２４２番地１３,上京区,簡易宿所,R7.2.12,35.018356,135.7588148,40,12,4,72,21,118,0
id_386,ＲＥＳＩＳＴＡＹ　お宿はち,京都市下京区下珠数屋町通間之町西入西玉水町２８１番地,下京区,簡易宿所,R4.7.19,34.9904615,135.7617751,2,6,158,92,18,189,1
id_387,京都鞍馬ＩＮＮ,京都市上京区上御霊前通烏丸東入上御霊前町４１２番地，４１２番地３，４１２番地４，４１２番地７４戸１棟長屋の南から２軒目,上京区,簡易宿所,R2.6.16,35.0363791,135.7594751,2,5,0,39,3,15,0
id_388,蛮子小路　四,京都市下京区小坂町７番地１０,下京区,簡易宿所,R1.7.29,34.9936431,135.7454448,0,6,11,34,0,19,1
id_389,翠苑,京都市中京区壬生森町４９番地,中京区,簡易宿所,R1.6.12,35.0047282,135.7375801,5,4,12,80,1,26,0
id_390,株式会社旅庵花月,京都市中京区六角通東洞院東入滕屋町191,中京区,旅館・ホテル,H6.4.27,35.0078172,135.7616083,5,5,2,85,11,64,0
id_391,株式会社　炭屋旅館,京都市中京区麩屋町通三条下る白壁町431,中京区,旅館・ホテル,S24.8.4,35.008291,135.7658185,37,90,17,95,11,171,4
id_392,ＨＩＧＡＳＨＩＹＡＭＡ　ＨＩＬＬＳ,京都市東山区三条通北裏白川筋西入二丁目東姉小路町４２１番地１,東山区,簡易宿所,R5.6.26,35.0102008,135.7791627,13,10,2,47,0,26,1
id_393,有限会社　たき川旅館　本館,京都市下京区東洞院通花屋町下る富田町365,下京区,旅館・ホテル,S34.3.19,34.9932161,135.7608634,5,2,22,47,7,49,0
id_394,ＳｌｏｗＴｉｍｅホテル京都,京都市下京区中堂寺庄ノ内町２４番地６,下京区,簡易宿所,R2.11.11,34.9983941,135.736372,1,4,7,86,2,23,6
id_395,戒光庵,京都市南区西九条戒光寺町１２番地２,南区,簡易宿所,H28.7.11,34.984889,135.7511185,1,13,0,52,0,31,1
id_396,７ＩＮＮ,京都市南区東九条北松ノ木町２４番地８,南区,簡易宿所,R7.8.28,34.9783257,135.7660104,16,3,58,104,1,144,7
id_397,菊の里,京都市南区西九条東比永城町４９番地,南区,簡易宿所,R3.3.19,34.9784873,135.7504796,2,3,7,92,4,27,4
id_398,お宿　東寺２,京都市南区西九条東柳ノ内町５４番地１８、５４番地１９（１、２Ｆ）,南区,簡易宿所,R6.11.26,34.975506,135.7529642,6,7,0,59,2,67,0
id_399,四季の宿,京都市山科区竹鼻竹ノ街道町４４番地４（家屋番号４４番４の３）,山科区,簡易宿所,H30.2.14,34.9889802,135.8162562,9,1,9,71,4,75,8
id_400,京蘭　夕顔邸,京都市東山区今熊野椥ノ森町４１番地９,東山区,簡易宿所,R7.9.12,34.984484,135.7742453,30,1,4,94,1,45,1
id_401,ＭＵＮＩ　ＫＹＯＴＯ,京都市右京区嵯峨天龍寺芒ノ馬場町３番地,右京区,旅館・ホテル,R2.6.30,35.0146589,135.6757445,2,0,0,24,0,4,1
id_402,ＨＯＴＥＬ　ｔｏｎｉｍａｒｕ（ホテル　とにまる）,京都市東山区五条橋東六丁目５３９番地１,東山区,簡易宿所,H30.8.29,34.9950132,135.7809247,37,8,4,105,4,76,2
id_403,Ｔｈｉｒｄ＆Ｐｌａｃｅ　京都　四条大宮,京都市中京区壬生梛ノ宮町１１番地１３，１１番地１７，１１番地２３,中京区,簡易宿所,R3.7.20,35.0027448,135.7434462,19,14,1,67,0,93,1
id_404,ＪＡＭ　ＨＯＳＴＥＬ　ＫＹＯＴＯＧＩＯＮ,京都市東山区大和大路通四条上る常盤町１７０番地,東山区,簡易宿所,H24.1.26,35.004928,135.772437,83,1,22,90,5,127,9
id_405,京都　桔梗,京都市南区東九条西岩本町３５番地１９，３５番地２４,南区,簡易宿所,H30.3.28,34.9827952,135.7637979,1,1,20,43,1,46,1
id_406,花園会館,"京都市右京区花園木辻北町 1-5,1-4",右京区,旅館・ホテル,H8.2.16,35.0209312,135.7227861,15,35,2,107,56,117,8
id_407,さらんばん　２,京都市中京区壬生仙念町１０番地３　６階,中京区,簡易宿所,H28.8.2,35.0033732,135.7355853,0,16,5,44,1,55,1
id_408,小坂町宿,京都市下京区小坂町１６番地２５,下京区,簡易宿所,R4.2.24,34.9935573,135.7468884,1,3,1,20,0,7,1
id_409,渡庵,京都市南区東九条南松ノ木町３５番地，３５番地１,南区,簡易宿所,H28.11.7,34.9772413,135.7650149,13,23,174,95,4,220,4
id_410,Ｖｉｌｌａ　Ａｚｕｍａ,京都市中京区壬生高樋町２０番地１９,中京区,簡易宿所,H30.12.4,35.0034525,135.7399116,3,1,0,25,4,10,0
id_411,リバーサイド高瀬,京都市下京区木屋町通上ノ口上る聖真子町172-1,下京区,簡易宿所,S60.4.27,34.9933072,135.7657327,4,2,0,50,0,10,2
id_412,壬生宿　観柳斎,京都市下京区西酢屋町２番地（家屋番号２４東側１Ｆ）,下京区,簡易宿所,R3.8.16,34.9894626,135.7462684,16,106,64,110,25,217,1
id_413,蛮子民宿　金閣寺,京都市北区紫野南花ノ坊町３３番地６,北区,簡易宿所,H30.8.29,35.0388915,135.7378219,34,18,12,96,6,78,1
id_414,香柏　金閣　鳳,京都市北区紫野下柏野町１０番地,北区,簡易宿所,R2.11.13,35.0343233,135.737099,17,36,10,74,0,69,5
id_415,鈴　花屋町　朝霧５,京都市下京区二人司町６番地１７,下京区,簡易宿所,R5.12.1,34.9918702,135.7463887,0,0,44,69,32,88,4
id_416,たび宿　ちりん,京都市東山区今熊野池田町３７番地１５,東山区,簡易宿所,R1.12.26,34.9861392,135.7724817,0,5,14,58,3,29,4
id_417,京都千楽,京都市中京区西洞院通六角下る池須町４１９番地３,中京区,簡易宿所,H28.3.22,35.00661,135.7548556,1,31,0,47,0,38,1
id_418,Ｋｙｏｔｏ　Ｈａｎａ　Ｈｏｓｔｅｌ,京都市下京区不明門通七条上る粉川町２２９番地,下京区,簡易宿所,H22.4.27,34.9896989,135.760556,5,14,3,42,7,33,2
id_419,御宿　敬　Guesthouse KEI,京都市下京区岩上通綾小路下る雁金町415番地1,下京区,簡易宿所,H28.3.11,35.0015891,135.7511305,9,32,114,67,2,175,0
id_420,季・唐物町,京都市下京区富小路通花屋町下る唐物町４５２番地,下京区,簡易宿所,R7.7.31,34.9931087,135.7634149,12,26,39,82,18,153,6
id_421,ＨＯＭＥ　ＩＮＮ　九条河原町,京都市南区東九条北松ノ木町２５番地３，２５番地１３,南区,簡易宿所,R1.11.15,34.9785288,135.7658215,10,2,9,82,4,37,4
id_422,Ｋｙｏｔｏ　Ｋｕｊｏ　Ｉｎｎ,京都市南区東九条中御霊町６５番地,南区,簡易宿所,H30.5.28,34.978016,135.7624404,11,3,6,80,1,30,3
id_423,,京都市南区東九条中御霊町４６,南区,施設外玄関帳場,,34.9791438,135.7613819,2,0,6,23,0,39,0
id_424,桜の宿　影庵,京都市南区唐橋高田町２３番地９,南区,簡易宿所,R7.12.1,34.9811092,135.7422618,1,0,22,56,2,37,4
id_425,京　Suite　華な乃,京都市下京区楊梅通新町東入上柳町２２５番地２,下京区,簡易宿所,H29.5.9,34.9957287,135.7576084,1,5,6,24,8,22,2
id_426,ゲストハウス新町,京都市南区東九条下殿田町１５番地１６,南区,簡易宿所,H30.6.28,34.9804179,135.7566601,9,2,5,73,0,48,0
id_427,鹿麓,京都市左京区鹿ケ谷西寺ノ前町28番1,左京区,簡易宿所,H17.5.12,35.0200753,135.7921782,6,3,4,48,7,105,8
id_428,川溿,京都市下京区加茂川端六軒町下る八ツ柳町３５６番地１,下京区,簡易宿所,H30.5.22,34.9932616,135.7670565,2,41,55,83,25,143,6
id_429,東横ＩＮＮ京都二条城南,京都市中京区堀川通三条下る橋浦町２２３番地,中京区,旅館・ホテル,R5.1.19,35.0078331,135.7520967,35,1,5,43,4,71,1
id_430,京蘭　東福邸,京都市東山区福稲柿本町１７番地５８,東山区,簡易宿所,R6.3.29,34.980064,135.7687279,6,0,1,30,0,7,0
id_431,アーバン樹下京都駅前,京都市下京区下魚棚通油小路東入東町５８１番地,下京区,簡易宿所,H30.2.1,34.988275,135.7537274,3,6,0,33,8,21,1
id_432,ＫＩＯＲＩ　Ｈｏｔｅｌ　Ｔａｋａｋｕｒａ,京都市中京区高倉通三条下る丸屋町１６５番地,中京区,旅館・ホテル,R3.3.2,35.0078759,135.7623222,27,26,12,93,8,78,0
id_433,参の局,京都市上京区出水通淨福寺西入東神明町297番地,上京区,簡易宿所,H26.6.10,35.0209902,135.7443979,44,12,19,73,8,91,3
id_434,別邸　かざみ,京都市上京区六軒町通五上る末広町４５番地（家屋番号　４３番）,上京区,簡易宿所,R3.12.9,35.03123,135.7411237,8,3,5,24,1,19,0
id_435,聞法会館,京都市下京区堀川通花屋町上る柿本町600-1,下京区,旅館・ホテル,H9.7.24,34.9937481,135.7518764,0,5,6,24,8,23,1
id_436,ＳａｎＫｏｋｕＢａｓｈｉｒａ　Ｈｏｕｓｅ,京都市上京区笹屋町通千本東入笹屋町三丁目６１０番地,上京区,簡易宿所,R2.8.25,35.0283175,135.7436497,6,2,3,79,6,39,0
id_437,京都セントラルイン,京都市下京区四条通寺町東入二丁目御旅町３０番地,下京区,簡易宿所,R2.11.5,35.0039609,135.7680974,4,5,6,27,1,18,1
id_438,京蘭　桜花邸,京都市南区東九条西御霊町２９番地７,南区,簡易宿所,R6.12.2,34.9791938,135.7608378,2,15,49,86,5,87,3
id_439,五条ゲストハウス,京都市東山区五条橋東３丁目３９６－２,東山区,簡易宿所,H15.8.26,34.9953489,135.7722766,3,16,19,80,4,60,1
id_440,美山荘,京都市左京区花脊原地町３７５,左京区,旅館・ホテル,H14.6.5,35.2332787,135.7931216,1,0,0,27,3,18,2
id_441,ゲストハウス　お地蔵屋,京都市東山区耳塚通五条下る二丁目蛭子町北組２８２番地１,東山区,簡易宿所,H28.3.14,34.9927163,135.7702875,4,1,0,24,0,5,0
id_442,无量光,京都市南区東寺東門前町５４番地２,南区,簡易宿所,H29.2.14,34.9829966,135.7497264,16,52,61,95,1,144,9
id_443,太秦ありがとうハウス,京都市右京区太秦森ケ前町１１番地１８,右京区,簡易宿所,R7.9.12,35.0122131,135.7130735,0,2,14,45,5,29,2
id_444,開化（南）,京都市北区紫野上門前町６６番地　南側,北区,簡易宿所,H29.11.27,35.0453734,135.7478508,10,0,6,46,1,19,0
id_445,アゴーラ　京都四条,京都市下京区四条通油小路東入傘鉾町３６番地,下京区,旅館・ホテル,R3.4.26,35.0038248,135.7543197,14,41,52,78,22,147,6
id_446,ランドーレジデンシャルホテル京都スイーツ,京都市南区東九条北松ノ木町３８番地１,南区,簡易宿所,R1.10.24,34.9785128,135.7666663,13,3,61,110,11,170,3
id_447,今熊野テラス　道八庵,京都市東山区今熊野南日吉町１１１番地１北から３軒目,東山区,簡易宿所,R1.8.15,34.9857818,135.7787647,5,1,39,114,13,88,30
id_448,ゲストハウス　和　Ｇｕｅｓｔ　Ｈｏｕｓｅ　ＷＡ,京都市下京区七条通猪熊東入西八百屋町１５２番,下京区,簡易宿所,H24.5.11,34.9892778,135.751062,10,5,58,75,48,145,6
id_449,ＲＥＴＯＵＲ　ＫＹＯＴＯ（Ｃ棟）,京都市右京区京北上黒田町倉谷２番地１（東棟）,右京区,簡易宿所,R4.8.15,35.2074166,135.7512378,1,16,0,49,18,36,0
id_450,タッセルイン京都　河原町二条,京都市中京区新椹木町通二条上る角倉町２２６番地,中京区,簡易宿所,R3.10.19,35.0136542,135.768348,4,3,2,28,0,11,0
id_451,ゲストハウス　月と,京都市左京区聖護院山王町１９番地７,左京区,簡易宿所,H29.2.1,35.0175313,135.779586,2,4,44,94,2,81,11
id_452,ＨＯＴＥＬ　ＴＨＥ　ＰＯＩＮＴ　京都駅南,京都市南区東九条東山王町３０番地７,南区,簡易宿所,R1.12.19,34.9824204,135.7625186,22,8,34,75,1,112,4
id_453,ＲＥＳＩＤＥＮＣＥ　ＪＯ　ＪＹＵＧＯ,京都市下京区富小路通綾小路下る塗師屋町８２番地１,下京区,簡易宿所,H30.11.22,35.0022219,135.7647421,0,14,0,61,0,17,0
id_454,フォーシーズンズホテル＆ホテルレジデンス,京都市東山区妙法院前側町４４５番地３,東山区,旅館・ホテル,H28.9.30,34.9911813,135.7757224,27,7,5,101,15,78,15
id_455,くらま山　歓喜園,京都市左京区鞍馬本町1074-2,左京区,旅館・ホテル,S43.2.14,35.1139684,135.7736976,0,1,7,31,3,13,0
id_456,日日荘,京都市北区小山南上総町２番地４,北区,簡易宿所,H29.1.5,35.0401652,135.7582098,21,8,6,52,0,48,2
id_457,高瀬川　花衣（はなごろも）,京都市下京区木屋町通松原下る材木町４４６番地１１,下京区,簡易宿所,H29.6.14,34.9981778,135.7683896,0,0,12,19,1,17,0
id_458,ＶｉｌｌａＦｒｏｎｔ　Ｋｙｏｔｏ　Ｓｅｉｍｅｉ,京都市上京区葭屋町通一条上る晴明町８１６番地１，８１６番地２,上京区,簡易宿所,H30.3.6,35.0272765,135.7510069,25,0,3,68,4,34,0
id_459,憩　東寺　ゲストハウス,京都市南区西九条比永城町１９番地５,南区,簡易宿所,H30.12.17,34.9772983,135.7494632,0,0,1,25,1,12,0
id_460,ジチェン１,京都市東山区清閑寺池田町３５番地１１,東山区,簡易宿所,H30.4.19,34.9911635,135.7813356,15,0,1,31,1,21,2
id_461,時の宿・東福寺,京都市東山区福稲柿本町１６番地３，１６番地４,東山区,簡易宿所,H30.10.16,34.9798081,135.7684544,4,0,6,25,1,14,2
id_462,紡　七条鍵屋町　南棟,京都市下京区若宮通正面下る鍵屋町６４５番地,下京区,簡易宿所,R2.4.8,34.9905708,135.7559183,9,26,34,82,3,98,12
id_463,五右衛門,京都市伏見区桃山井伊掃部西町５番地７６,伏見区,簡易宿所,H29.1.18,34.9409128,135.7655816,48,7,8,73,8,83,2
id_464,京蘭　幻花邸,京都市南区東九条南山王町１６番地１,南区,簡易宿所,R7.10.9,34.9817567,135.7621872,1,0,7,76,9,27,0
id_465,Ｅｘｐｏ　Ｃｏｔｔａｇｅ　船,京都市北区紫野南舟岡町７２番地３,北区,簡易宿所,H31.4.22,35.0372442,135.7454078,6,3,17,92,5,41,4
id_466,京恋　清桜,京都市東山区大和大路通五条下る石垣町東側６２番地,東山区,簡易宿所,R1.5.17,34.9941862,135.771801,0,2,0,49,0,5,0
id_467,ＷＡＳＵＫＩ円町,京都市上京区御前通西裏上ノ下立売西入行衛町４７４番地７,上京区,簡易宿所,R7.10.9,35.0204096,135.7335834,19,1,9,37,0,49,0
id_468,Ｍｅｅｔ　清水寺,京都市東山区五条通若宮八幡前南入慈法院庵町５８９番地６,東山区,簡易宿所,H30.1.30,34.9932877,135.775477,5,1,34,84,4,72,11
id_469,先斗町別邸　将庵,京都市中京区東木屋町通四条上る鍋屋町２３２番地１２,中京区,簡易宿所,R4.3.11,35.0044188,135.7711578,0,0,3,33,0,13,0
id_470,Ｇｕｅｓｔ　Ｈｏｕｓｅ　Ｏｎｅ　Ｍｏｒｅ　Ｈｅａｒｔ　ａｔ　Ｈｉｇａｓｈｉ　Ｏｔｏｗａ,京都市東山区東大路通五条下る東音羽町５９９番地,東山区,簡易宿所,R5.4.28,34.9928939,135.777026,37,1,27,108,1,71,2
id_471,新稲荷,京都市伏見区深草鈴塚町１番地２６,伏見区,簡易宿所,R4.10.28,34.9697311,135.7681211,1,0,5,19,1,8,0
id_472,「京の温所」竹屋町,京都市中京区竹屋町通西洞院東入指物屋町３７１番地,中京区,簡易宿所,R2.7.17,35.0163625,135.7561298,6,44,32,114,10,181,3
id_473,Ｏｈａｎａ,京都市下京区櫛笥通丹波口下る裏片町１８１番地１６,下京区,簡易宿所,H30.6.18,34.993165,135.7470783,1,3,0,24,0,5,0
id_474,株式会社　兵衛,京都市左京区鞍馬貴船町１０１番地,左京区,簡易宿所,H25.5.17,35.1263272,135.764428,12,5,8,94,56,84,2
id_475,不思議な宿,京都市下京区東洞院通六条上る橋詰町１２８番地１,下京区,簡易宿所,R1.6.27,34.9941525,135.7611764,0,0,24,56,12,54,4
id_476,待賢院,京都市上京区黒門通丸太町上る小伝馬町５３９番地,上京区,簡易宿所,H28.11.8,35.0177881,135.749461,69,18,39,99,13,292,9
id_477,彩松　鴨川,京都市南区東九条北松ノ木町３９番地３７,南区,簡易宿所,H29.10.19,34.977854,135.7670298,5,0,6,25,0,29,0
id_478,メルディアステイ二条城,京都市中京区姉小路通堀川西入樽屋町４７３番地,中京区,簡易宿所,R2.12.22,35.0096135,135.7513026,0,23,8,73,6,46,2
id_479,京町　夢二,京都市中京区壬生上大竹町１６番地１,中京区,簡易宿所,H29.8.28,35.0082587,135.7350006,32,5,17,114,13,118,4
id_480,Ｌｕｎａ宿京都二条　（Ｌｕｎａ　Ｙａｄｏ　Ｋｙｏｔｏ　Ｎｉｊｏ）,京都市上京区浄福寺通一条下る東西俵屋町６６８番地３,上京区,簡易宿所,H29.11.13,35.0259953,135.7440843,5,22,0,68,0,36,1
id_481,百代家　京都　鎌屋町,京都市下京区東堀川通下魚ノ棚下る鎌屋町１３番地,下京区,簡易宿所,R7.10.31,34.9961959,135.75972,9,23,34,68,12,114,12
id_482,ＪＰ　ＲＥＳＥＲＶＥ　毘沙門町,京都市下京区若宮通五条下る毘沙門町４３番地,下京区,簡易宿所,R6.9.25,34.9956842,135.7560504,12,32,136,68,18,210,1
id_483,めぐみ庵　西院邸,京都市中京区壬生東土居ノ内町１０番地４４,中京区,簡易宿所,H30.4.3,35.0013496,135.7356503,0,0,6,53,1,20,1
id_484,ＥＮＲＡＫＵ,京都市中京区西ノ京左馬寮町８番地２７,中京区,簡易宿所,H30.5.21,35.0169398,135.736734,21,26,1,73,8,59,0
id_485,中島家,京都市下京区高倉通仏光寺上る西前町３６９番地,下京区,旅館・ホテル,S51.4.1,35.0017468,135.7624998,27,23,29,61,12,123,4
id_486,Ｇｕｅｓｔ　Ｈｏｕｓｅ　Ｏｎｅ　Ｍｏｒｅ　Ｈｅａｒｔ  ａｔ　Ｋｙｏｔｏ　Ｓｔａｔｉｏｎ　Ｓｏｕｔｈ４,京都市南区東九条中殿田町１５番地１５,南区,簡易宿所,R2.4.28,34.9813513,135.7577348,2,20,61,108,11,103,7
id_487,Ｍｉｒｕ　Ｋｙｏｔｏ　Ｎｉｓｈｉｋｉ,京都市中京区柳馬場通六角下る井筒屋町４２４番地,中京区,旅館・ホテル,H30.6.20,35.0064112,135.7641792,3,0,1,22,0,5,0
id_488,京都市野外活動施設花背山の家,京都市左京区花脊別所町３９９番地,左京区,簡易宿所,H23.6.2,35.1722745,135.7855383,0,12,14,48,1,38,4
id_489,ＢｏＢｏ　Ｈｏｕｓｅ,京都市上京区大宮通寺之内上る三丁目筋違橋町５４５番地,上京区,簡易宿所,R2.3.26,35.0368319,135.7490168,12,23,34,90,2,93,0
id_490,京都北野天満宮前Ａ棟,京都市上京区御前通今出川上る鳥居前町６６４番地４７,上京区,簡易宿所,H29.1.12,35.0315581,135.7368803,7,3,26,94,10,58,3
id_491,夏様・丹波口,京都市下京区西新屋敷下之町２８番地４（中）,下京区,簡易宿所,R6.4.26,34.9926343,135.74346,1,0,5,55,1,12,3
id_492,京都マイペンション,京都市右京区西院小米町34,右京区,簡易宿所,S57.12.27,35.0039677,135.7247032,22,4,1,76,15,50,4
id_493,ホテルサンデーブランチ,京都市東山区東大路松原上ル４丁目西入毘沙門町４４番地の４８,東山区,旅館・ホテル,H15.5.2,35.000307,135.7764197,7,0,0,47,1,18,4
id_494,Ｂ＆Ｂ　宇凪院,京都市下京区西洞院通松原下る永倉町５６３番地,下京区,簡易宿所,R1.7.19,34.9983821,135.7554581,3,0,11,33,3,22,1
id_495,京小宿　華乃家,京都市下京区綾小路通東洞院東入神明町722番地3,下京区,簡易宿所,H26.8.8,35.0028998,135.7616625,6,16,29,49,2,70,0
id_496,御屋・藤,京都市南区東九条東御霊町１番地３,南区,簡易宿所,R3.5.25,34.97748,135.7633258,5,7,0,46,1,15,0
id_497,鈴　四条町家,京都市下京区綾小路通油小路東入芦刈山町１１２番地２,下京区,簡易宿所,H29.5.17,35.0025599,135.753977,9,0,36,65,0,52,4
id_498,,京都市南区東九条南烏丸町１４番地９,南区,施設外玄関帳場,,34.977307,135.7591088,5,6,6,28,0,19,0
id_499,Ｊｉｚｏ　Ｈｏｕｓｅ,京都市東山区今熊野南日吉町３０番地８,東山区,簡易宿所,H28.7.15,34.984371,135.7785833,39,9,32,89,1,98,11
id_500,京御宿　蔵々,京都市南区東九条上殿田町２３番地５,南区,簡易宿所,H30.11.28,34.9823255,135.7589932,15,3,64,112,4,136,1
id_501,,京都市中京区壬生高樋町１３番地２４,中京区,施設外玄関帳場,,35.002606,135.7414229,4,4,1,81,8,60,0
id_502,ＫＹＯＳＴＡＹいろは　夏椿,京都市南区西九条針小路町２２番地１,南区,簡易宿所,H31.4.23,34.9823302,135.7511578,1,11,26,56,0,56,0
id_503,乃斯（ナイス）,京都市山科区竹鼻地蔵寺南町３番地１,山科区,簡易宿所,H29.11.9,34.9869881,135.8153038,3,6,11,46,2,27,1
id_504,京蘭　富士邸,京都市東山区大仏南門通大和大路東入上池田町５４０番地８,東山区,簡易宿所,R7.9.12,34.9859314,135.7711726,30,1,25,90,1,96,38
id_505,Ｐｒｉｖａｔｅ　Ｒｅｓｉｄｅｎｃｅ　夜桜,京都市下京区八条通黒門東入坊門中之町６１２番地,下京区,簡易宿所,H30.9.11,34.9866588,135.750442,2,4,0,69,15,74,1
id_506,Ｍｉｎｎ　Ｎｉｊｏ‐ｊｏ,京都市中京区神泉苑通御池下る神泉苑町１７番地１,中京区,旅館・ホテル,R5.2.16,35.0104047,135.7476604,0,0,6,31,0,24,0
id_507,田の屋,京都市上京区中立売通日暮東入新白水丸町４６２番地６,上京区,旅館・ホテル,H29.11.28,35.0260188,135.7479341,60,15,4,104,2,144,4
id_508,コウメノハナレ,京都市左京区古川町通三条上る二丁目東門前町５２３番地６,左京区,簡易宿所,H28.1.29,35.0103992,135.7788429,2,29,7,87,18,77,11
id_509,温泉の宿　祇園舞扇　別邸　ｂｙ　宿ル　ＫＹＯＴＯ　ＨＡＮＡＲＥ,京都市東山区新門前通大和大路東入西之町２３２番地２，２３２番地３，２３２番地４,東山区,簡易宿所,H30.9.3,35.006243,135.7742826,30,25,32,104,5,108,11
id_510,雲・小天,京都市中京区新町通竹屋町下る弁財天町３１９番地,中京区,簡易宿所,H29.9.29,35.0150478,135.7566134,71,4,34,77,10,167,7
id_511,京恋　麗思鴨川,京都市中京区二条通河原町東入樋之口町４７０番地４,中京区,簡易宿所,H31.1.16,35.013087,135.7700283,21,54,2,70,6,112,2
id_512,京町家の宿　至誠宿　大宮五条,京都市下京区大宮通五条下る二丁目東側堀之上町５１７番地,下京区,簡易宿所,H30.7.18,34.9946323,135.7493129,0,36,0,50,1,41,0
id_513,ｓｏｍｅｙａ,京都市北区大北山原谷乾町４２番２０,北区,簡易宿所,H28.12.19,35.0480059,135.7180447,30,18,15,88,1,70,3
id_514,Ｈｏｔｅｌ　Ｆｅｍｍｅ　Ｓｔａｙ,京都市中京区猪熊通六角下る六角猪熊町６１８番地,中京区,簡易宿所,R6.9.10,35.0070003,135.7505801,25,41,11,103,11,163,3
id_515,京の宿　西大路　ｆａｍｉｌｉｅ,京都市下京区七条御所ノ内北町４７番地１,下京区,簡易宿所,R1.11.5,34.9866913,135.7302544,1,1,7,19,1,12,2
id_516,京ノ家　五条西洞院,京都市下京区東中筋通五条下る天使突抜三丁目４５６番地,下京区,簡易宿所,R1.12.13,34.9954677,135.754566,1,3,1,20,1,11,1
id_517,ＬＯＣＡＬ　ＳＴＡＹ,京都市伏見区向島二ノ丸町３３９番地１８,伏見区,簡易宿所,H30.3.9,34.9201149,135.7723753,0,3,18,45,0,23,0
id_518,鈴　九条藤ノ木　東,京都市南区西九条藤ノ木町３８番地,南区,簡易宿所,H28.7.25,34.9838637,135.7510847,2,17,10,78,11,89,3
id_519,Ｃｈｅｌｓｅａ２４,京都市中京区鏡屋町２２番地２,中京区,簡易宿所,H27.12.2,35.0161628,135.7577358,4,7,2,92,13,38,4
id_520,古都夢,京都市東山区五条橋東六丁目583-58,東山区,簡易宿所,S59.2.29,34.9951956,135.780343,15,0,1,32,2,19,0
id_521,三条松の華京町屋,京都市中京区壬生馬場町１４番地２１,中京区,簡易宿所,R7.6.6,35.0084232,135.7446301,19,68,7,62,8,158,1
id_522,旅館　からたち,京都市伏見区深草一ノ坪町20-6,伏見区,旅館・ホテル,S49.8.6,34.9689109,135.7695025,19,0,0,55,0,21,1
id_523,京宿家格致すおう庵,京都市下京区高辻通油小路東入永養寺町２４０番地（家屋番号３９）,下京区,簡易宿所,H23.11.7,35.0000274,135.7545247,14,6,77,102,3,139,8
id_524,プレミアム東寺,京都市南区西九条比永城町１１９番地,南区,簡易宿所,R6.3.27,34.9791432,135.7490514,13,21,55,92,4,164,3
id_525,奏　松原御幸町,京都市下京区松原通寺町西入石不動之町６８１番地３,下京区,簡易宿所,R1.12.6,34.9991064,135.7659191,14,29,47,93,15,136,8
id_526,枳殻の杜（ＫＩＫＯＫＵ　ＮＯ　ＭＯＲＩ）,京都市下京区間之町通上珠数屋町下る打越町３２０番地,下京区,簡易宿所,R5.10.25,34.9920694,135.7620206,0,14,0,65,0,21,4
id_527,Ｔｈｒｅｅ　Ｗａｖｅ　二条,京都市中京区西ノ京船塚町１５番地１４,中京区,簡易宿所,H31.2.26,35.0115963,135.7372655,0,2,5,55,4,12,0
id_528,若川楽水の宿,京都市下京区三ノ宮町通上ノ口下る高宮町２３９番地,下京区,簡易宿所,R1.5.14,34.992684,135.7659456,1,1,0,42,1,12,0
id_529,Ｍｅｅｔ京都駅,京都市南区東九条東御霊町５８番地８,南区,簡易宿所,R2.6.16,34.9776618,135.7637424,0,2,6,23,0,10,0
id_530,Ｒｉｎｎ　Ｓａｎｊｏ　Ｏｈａｓｈｉ　Ｅａｓｔ,京都市東山区三条通大橋東入三町目２５番地５,東山区,簡易宿所,H29.7.20,35.0100056,135.7754648,37,8,79,105,4,144,2
id_531,慶庵　五条本町,京都市東山区本町通五条下る本町二丁目６１番地１,東山区,簡易宿所,R3.3.11,34.9946035,135.7696849,32,10,56,92,9,112,2
id_532,ゲストハウス　橋旅,京都市東山区福稲柿本町１６番地２５,東山区,簡易宿所,H30.11.22,34.9797625,135.7686041,6,10,34,113,6,76,18
id_533,,京都市下京区新町通高辻下る御影町４５４番地,下京区,施設外玄関帳場,,34.9995872,135.7565074,37,38,61,107,18,192,20
id_534,ゲストハウス　田中,京都市北区紫野花ノ坊町４０番地３　１Ｆ,北区,簡易宿所,R3.6.22,35.0402378,135.7369025,49,11,1,72,2,63,0
id_535,洛楽集庵,京都市上京区葭屋町通出水下る元福大明神町３１２番地３,上京区,簡易宿所,R1.7.5,35.0211171,135.7513489,8,2,31,78,10,56,3
id_536,ＣＯＺＹ　ＨＯＭＥ　上京,京都市上京区上立売通浄福寺西入二丁目下る姥ケ榎木町８３５番地４,上京区,簡易宿所,R2.4.15,35.031913,135.7439504,56,25,27,108,11,124,3
id_537,Ｍｉｎｉ　Ｉｎｎ　Ｋｙｏｔｏ,京都市下京区西洞院通六条上る金屋町４８５番地,下京区,簡易宿所,R6.1.9,34.994289,135.7554488,15,32,61,92,15,137,8
id_538,ザ　ロイヤルパーク　キャンバス　京都二条,京都市中京区西ノ京職司町２２番地７,中京区,旅館・ホテル,R3.5.31,35.0107248,135.7431065,0,0,4,34,3,12,0
id_539,御屋・桃,京都市下京区七条通大宮西入花畑町５９１番地１３,下京区,簡易宿所,R5.4.10,34.9900499,135.7476842,9,0,22,53,7,47,0
id_540,清水竹禅庵,京都市東山区六波羅裏門通東入二丁目竹村町１５１番地２８,東山区,簡易宿所,R7.7.31,34.995626,135.7754626,4,0,6,32,1,17,4
id_541,花鈴　京都宿　忍,京都市中京区壬生御所ノ内町７番地２,中京区,簡易宿所,H30.11.2,35.0060775,135.7437963,83,7,12,112,11,176,4
id_542,TSUKIMI HOTEL,京都市東山区下河原通八坂鳥居前下る月見町２１番地,東山区,簡易宿所,H30.11.13,35.0009168,135.7783396,60,16,3,64,0,92,8
id_543,寶・柿町,京都市東山区大黒町通松原下る三丁目大黒町２８９番地４,東山区,簡易宿所,R7.5.2,34.9969941,135.7711981,0,0,6,42,0,13,2
id_544,銀の宿　上平野町　１０２,京都市下京区不明門通五条下る上平野町４５５番地６、４５５番地７東側,下京区,簡易宿所,R5.5.19,34.9955614,135.7604938,9,4,44,73,18,82,4
id_545,お食事処　やまざき旅館,京都市右京区梅ケ畑高鼻町１１,右京区,旅館・ホテル,H14.12.9,35.0449828,135.689356,1,23,8,74,0,35,1
id_546,東福寺リバーサイド,京都市東山区福稲御所ノ内町２番地２７，２番地２８,東山区,簡易宿所,H29.3.27,34.9802909,135.7698502,0,0,13,41,2,27,4
id_547,,京都市東山区三条通白川橋東入５丁目東町２２０番地１,東山区,施設外玄関帳場,,35.0092118,135.7808906,4,1,6,30,0,15,2
id_548,伊蘭居,京都市南区西九条東島町１６番地５,南区,簡易宿所,H30.1.25,34.9766824,135.7542549,9,2,36,71,0,56,2
id_549,竹影月影,京都市下京区松原通寺町西入石不動之町６８１番地,下京区,簡易宿所,H30.6.5,34.9990972,135.7659746,22,23,63,69,25,150,4
id_550,,京都市下京区西新屋敷下之町２８番地４（北）,下京区,施設外玄関帳場,,34.9926343,135.74346,2,75,8,82,40,148,6
id_551,高台寺　阿わた,京都市東山区下河原通高台寺下る南町４１３,東山区,旅館・ホテル,H10.3.20,34.9991233,135.7786021,0,4,3,58,2,21,1
id_552,旅館　寿々喜荘,京都市伏見区成町８１３－１,伏見区,旅館・ホテル,H4.10.19,34.9391073,135.7557071,52,7,64,81,1,128,2
id_553,hotel anddoggy 京都二条,京都市中京区大宮通御池下る三坊大宮町１４４番地４,中京区,旅館・ホテル,R6.3.11,35.0106156,135.7491241,0,16,1,64,8,55,0
id_554,Ｓａｊｕ　Ｋｙｏｔｏ　茶住　京都,京都市下京区仏光寺通麩屋町西入仏光寺東町１０７番地,下京区,簡易宿所,R6.3.19,35.0011821,135.764074,10,68,0,67,0,91,4
id_555,株式会社　京都トラベラーズ・イン,京都市左京区岡崎円勝寺町91-2,左京区,簡易宿所,S63.7.29,35.0117185,135.7840094,43,106,58,91,22,238,2
id_556,ｃａｓａｎａ　ＫＹＯＴＯ,京都市東山区馬町通大和大路東入二丁目下新シ町３２６番地２、３２７番地１、３２７番地２,東山区,簡易宿所,R7.10.22,34.9936988,135.7717551,0,0,2,45,2,9,1
id_557,Ｋｙｏｔｏ　ｗｅｓｔ　ｈｏｔｅｌ　ＡＰＴ,京都市南区西九条横町３５番地,南区,簡易宿所,R5.4.11,34.9837284,135.7504697,2,0,9,33,1,38,0
id_558,京都嵐山温泉「花伝抄」,京都市西京区嵐山西一川町５番４，４番３,西京区,旅館・ホテル,H23.9.5,35.0105203,135.6800338,0,0,0,22,1,5,0
id_559,京の宿　柚,京都市東山区三条通白川筋黒谷道西入柚之木町３５６番地,東山区,簡易宿所,H28.3.10,35.0098981,135.7838504,23,7,4,73,4,51,11
id_560,中野,京都市東山区祇園町南側570-8,東山区,旅館・ホテル,S40.12.23,35.0022914,135.7755002,3,4,3,74,4,44,22
id_561,美盧京都二条ホテル,京都市中京区西ノ京勧学院町２０番地１,中京区,簡易宿所,R4.3.16,35.0090061,135.7444652,30,32,10,89,10,89,7
id_562,やまぶき,京都市上京区中町通丸太町上る俵屋町４３６番地２,上京区,簡易宿所,H28.10.13,35.0182929,135.769756,2,0,6,37,2,81,0
id_563,新門荘,京都市東山区新門前通大和大路東入二丁目中之町243,東山区,旅館・ホテル,S55.9.17,35.0062242,135.775352,6,0,6,26,1,16,2
id_564,竹林京舎,京都市東山区馬町通本町東入北棟梁町３１２番地４,東山区,簡易宿所,H30.4.13,34.9942802,135.7707526,2,1,6,20,0,12,2
id_565,モクシー京都,京都市中京区西ノ京南聖町１２番地,中京区,旅館・ホテル,R3.5.31,35.0100296,135.7429174,9,0,4,53,4,38,1
id_566,国家公務員共済組合連合会京都宿泊所　くに荘,京都市上京区河原町通荒神口上る東入東桜町２７－３,上京区,旅館・ホテル,H10.4.22,35.0224792,135.7704264,36,12,3,79,0,63,0
id_567,,京都市右京区西院上今田町２０番地１　南側１階,右京区,施設外玄関帳場,,35.0082157,135.7327556,5,0,1,57,7,21,2
id_568,ＣＯＺＹ　ＨＯＭＥ　西陣,京都市上京区中立売通土屋町東入田丸町３６９番地４　１F，２F,上京区,簡易宿所,H30.12.21,35.0248933,135.7436215,22,0,0,49,1,37,2
id_569,猩々庵,京都市伏見区成町７９４番地・７９６番地合併１２,伏見区,簡易宿所,H28.12.13,34.9392029,135.7558005,10,10,7,103,13,44,2
id_570,大同 ＧＡＲＤＥＮ ＨＯＴＥＬ ＫＹＯＴＯ,京都市伏見区深草西浦町三丁目６１番地,伏見区,旅館・ホテル,R7.1.23,34.9602322,135.7666821,0,0,16,45,4,21,0
id_571,Ｔｈｅ別荘　そそ　壱,京都市下京区河原町通上枳殻馬場上る若宮町４６５番地６,下京区,簡易宿所,H28.11.21,34.9931314,135.7637541,1,0,26,59,0,55,4
id_572,左岸・京（Ｓａｇａｎ　Ｋｙｏｔｏ）,京都市東山区福稲柿本町２０番地７５,東山区,簡易宿所,H29.10.27,34.9785572,135.7686827,4,8,27,94,1,50,2
id_573,ホテル嵯峨野,京都市右京区嵯峨罧原町 16-6,右京区,旅館・ホテル,H8.8.16,35.0088149,135.6905984,14,0,5,46,0,29,0
id_574,懐傳,京都市下京区小坂町１番地９,下京区,簡易宿所,H28.12.22,34.9939381,135.7449896,0,23,36,70,12,108,6
id_575,ＲＥＳＩ ＳＴＡＹ ＢＲｉＸ,京都市下京区富小路通五条下る本塩竈町５５８番地９，５５８番地１０河原町通五条下る本塩竈町５８３番地１,下京区,簡易宿所,H31.3.5,34.995616,135.7651693,12,5,9,93,18,49,1
id_576,Ｂｉｊｕｕ,京都市下京区西木屋町通四条下ル船頭町１９４,下京区,簡易宿所,H25.3.7,35.0028609,135.7703523,2,41,58,94,56,169,8
id_577,デュシタニ京都,京都市下京区西洞院通花屋町下る西洞院町４６６番地,下京区,旅館・ホテル,R5.8.23,34.991961,135.755028,0,16,0,33,0,27,0
id_578,Ｃａｓａ　Ａｍｂｅｒ　琥珀居,京都市南区東九条柳下町１４番地９,南区,簡易宿所,R7.1.17,34.9741217,135.7631222,2,56,61,95,5,131,4
id_579,棗庵,京都市中京区中筋通竹屋町上る末丸町５４１番地４３,中京区,簡易宿所,H28.6.24,35.0158907,135.7701888,19,4,6,67,1,53,1
id_580,Ｒｉｎｎ　四季十楽　七楽,京都市上京区下立売通油小路西入東橋詰町１８３番地３京都市上京区油小路通下立売上る近衛町１６５番地（家屋番号１８３番３　西から２軒目）,上京区,簡易宿所,R4.12.5,35.0203373,135.7531906,16,5,0,40,0,47,0
id_581,近よし　西,京都市下京区鍵屋町通烏丸西入鍵屋町３２６番地，３２７番地　３戸１棟長屋の西側,下京区,簡易宿所,R1.6.26,34.9950424,135.7585262,8,12,24,64,7,81,2
id_582,カプセルホテル　ルーマプラザ,京都市東山区祇園町南側５７５番地，５７４番地，５７４番地１フジビル２階，３階,東山区,簡易宿所,H26.12.9,35.0035831,135.7742456,42,11,4,103,1,76,15
id_583,ゲストハウス大黒,京都市中京区堺町通御池下る丸木材木町６８４番地１　２Ｆ,中京区,簡易宿所,H30.6.20,35.009908,135.7633387,0,14,5,51,13,63,1
id_584,京町家 祇園 叶う,京都市東山区祇園町南側５７０番地５１,東山区,簡易宿所,H29.6.13,35.0009355,135.7773243,9,0,0,40,1,26,9
id_585,お宿　たけ乃屋,京都市下京区朱雀北ノ口町１５番地１（中央）,下京区,簡易宿所,R7.2.17,34.9899675,135.7400134,8,4,0,75,2,94,4
id_586,京町家ちよせ,京都市中京区竹屋町通車屋町東入清水町３９１番地　１階，２階,中京区,簡易宿所,H30.6.20,35.0140061,135.7689821,22,8,10,38,3,65,0
id_587,Ｉｎｃ．,京都市中京区西洞院通夷川下る薬師町６５２番地１２Ｆ，３Ｆ，４Ｆ,中京区,簡易宿所,R2.2.18,35.0146462,135.7549213,1,5,0,28,0,16,0
id_588,Ｒｉｎｎ　Ｋｙｏｔｏ　Ｇｉｏｎ　Ｓｈｉｎｂａｓｈｉ,京都市東山区新橋通大和大路東入二丁目橋本町４１５番地１,東山区,簡易宿所,R7.1.8,35.005625,135.7761425,4,1,0,32,1,9,2
id_589,ゲストハウス詩屋,京都市南区東九条河西町１７番地１２,南区,簡易宿所,H30.10.11,34.9803999,135.7651818,3,0,0,28,1,24,0
id_590,紡　東福寺南門,京都市東山区本町通五条下る本町十八丁目３８３番地３,東山区,簡易宿所,H29.5.16,34.9754131,135.770195,6,0,1,28,0,11,2
id_591,京都駅前　えむず庵,京都市南区西九条蔵王町１３番地３７，１３番地３８,南区,簡易宿所,H28.7.6,34.9796072,135.7528667,7,3,1,27,1,59,0
id_592,雲・風早,京都市下京区油小路通綾小路下る風早町５６０番地,下京区,簡易宿所,H29.10.3,35.0023276,135.753533,11,32,7,77,2,58,1
id_593,綵（あやぎぬ）,京都市下京区下魚ノ棚通油小路東入東町２６０番地２,下京区,簡易宿所,H28.12.27,35.0250227,135.7587624,3,1,14,30,3,30,1
id_594,夏様・五条,京都市下京区西新屋敷下之町２８番地４（南）,下京区,簡易宿所,R6.4.26,34.9926343,135.74346,1,0,22,53,7,34,2
id_595,ｍａｒｕｃｏ右近,京都市南区西九条開ケ町１０８番地２,南区,簡易宿所,R2.3.11,34.9786137,135.7516821,13,3,67,91,6,129,0
id_596,,京都市東山区五条橋東四丁目４３２番地１３　對嵐坊ビル３０２,東山区,施設外玄関帳場,,34.9950527,135.7735928,2,0,18,59,2,29,6
id_597,かもがわさんぽ,京都市左京区竹屋町通川端東入東竹屋町６９番地２５,左京区,簡易宿所,R7.8.13,35.0164344,135.7730973,2,26,7,84,2,81,22
id_598,伽羅　ＫＹＡＲＡ　ＨＯＴＥＬ,京都市南区東九条石田町２２番地７,南区,簡易宿所,R7.11.14,34.9745747,135.760771,7,0,0,31,0,9,0
id_599,京の小宿　ＫＡＮＡ町家,京都市右京区西院松井町１５番地３,右京区,簡易宿所,R3.4.7,35.0030956,135.7296621,0,1,0,33,1,5,1
id_600,Ｋ’ｓ　Ｖｉｌｌａ　松見庵,京都市下京区二ノ宮町通正面下る上二之宮町４１２番地,下京区,簡易宿所,R1.12.13,34.9909033,135.7667602,0,3,0,24,1,9,1
id_601,Guest House WASSO,京都市伏見区深草下川原町21番地27,伏見区,簡易宿所,H29.3.15,34.9685982,135.7643334,0,0,32,30,4,41,0
id_602,香驛,京都市中京区壬生下溝町４９番地３,中京区,簡易宿所,H30.5.9,35.0003563,135.7365994,22,10,1,45,0,59,0
id_603,ＨＯＴＥＬ　Ｌｉｂｅｒａ,京都市西京区大枝沓掛町８番地の２,西京区,旅館・ホテル,H12.5.1,34.9802527,135.6569441,13,2,6,33,0,23,1
id_604,Ｒｏｙｃｅ　Ｅｎｍａｃｈｉ,京都市中京区西ノ京馬代町２０番地７,中京区,簡易宿所,H29.4.11,35.0189379,135.726357,4,0,2,26,2,20,0
id_605,四季々々しんら,京都市中京区室町通押小路上る蛸薬師町２８６番地１Ｆ,中京区,簡易宿所,H30.5.1,35.0125951,135.7578984,6,16,2,29,2,42,0
id_606,,京都市東山区三条通南裏白川筋西入三丁目南西海子町４４３番地３（１階北東角）,東山区,施設外玄関帳場,,35.0089927,135.7788429,12,3,2,50,2,24,1
id_607,雅,京都市南区西九条唐橋町３９番地１，４０番地１,南区,簡易宿所,H28.11.25,34.9813268,135.7513089,0,11,2,38,2,17,0
id_608,,京都市南区西九条御幸田町１９番地５－２階,南区,施設外玄関帳場,,34.9753575,135.7492001,5,0,18,49,2,45,2
id_609,,京都市中京区壬生土居ノ内町４３番地４　１階,中京区,施設外玄関帳場,,35.0010977,135.7350708,13,3,6,70,4,64,0
id_610,ＡＤＤｒｅｓｓ京都伏見Ａ邸,京都市伏見区桃山筒井伊賀東町７７番地（東側）,伏見区,簡易宿所,R5.3.6,34.9385998,135.7676488,52,7,36,76,10,106,0
id_611,はる家,京都市東山区三条通白川橋西入二筋目下る古川町５４２番４,東山区,簡易宿所,H23.9.28,35.0087572,135.7789355,0,0,0,17,0,1,0
id_612,Ｍｕｓａｓｈｉ　Ｍａｃｈｉｙａ　２,京都市東山区大仏南門通大和大路東入上池田町５４１番地７，５４１番地８　２階,東山区,簡易宿所,R2.11.12,34.9862456,135.7711763,23,21,23,86,1,73,2
id_613,ホテルフォルツァ京都四条河原町,京都市下京区四条通麩屋町西入立売東町２５番地１,下京区,旅館・ホテル,R3.5.20,35.0034803,135.7653736,2,21,39,75,48,158,0
id_614,Ｋａｍｏｎ　Ｉｎｎ　Ｈｉｇａｓｈｉｙａｍａ　Ｇｏｊｏ,京都市東山区五条坂若宮八幡南前下る慈法院庵町５８９番地９,東山区,簡易宿所,R1.8.23,34.9931651,135.7757502,3,1,1,22,1,11,4
id_615,慶有魚　五条,京都市東山区柿町通大黒町西入東川原町５２６番地１,東山区,簡易宿所,R1.8.29,34.9970328,135.770556,5,8,25,84,1,53,2
id_616,Ｌａ　ｃａｓａ,京都市南区東九条東岩本町１８番地７,南区,簡易宿所,H30.7.30,34.9839572,135.7652993,15,3,136,110,13,178,4
id_617,山水間,京都市東山区大黒町通松原下る二丁目山城町２７８番地４及び５,東山区,旅館・ホテル,H22.6.11,34.9976723,135.7712008,3,0,4,22,1,9,0
id_618,Ｎｏ．８　京都,京都市南区東九条上御霊町７番地２,南区,簡易宿所,R1.10.4,34.9805724,135.7618902,1,5,16,43,0,23,0
id_619,京都　イン　ギオン　２号館,京都市東山区広道通松原上る四丁目毘沙門町４６番地７，４６番地８，４６番地９，４６番地１３，４６番地１４,東山区,旅館・ホテル,H29.9.6,35.0006024,135.776151,34,6,3,91,1,72,11
id_620,茜　ａｋａｎｅ　京都西陣,京都市上京区大宮通上長者町下る東堀町６１５番地１,上京区,簡易宿所,R6.2.19,35.0234452,135.7488021,9,40,31,87,1,91,0
id_621,京一軒町家　染　ＳＥＮ　七条平安,京都市下京区七条通大宮西入花畑町５９１番地２,下京区,簡易宿所,H30.5.15,34.9903535,135.7477027,3,6,12,31,0,30,0
id_622,アパホテル ＜京都駅東＞,京都市下京区東洞院通七条下る東塩小路町５５２番地１,下京区,簡易宿所,R1.12.3,34.9878284,135.7615297,3,1,0,37,0,15,0
id_623,花住　清水,京都市東山区五条通大和大路東入門脇町１８７番地４,東山区,簡易宿所,H30.10.9,34.1134909,134.1625338,12,3,25,46,0,46,4
id_624,ＴＳＵＢＯＭＩ　Ｌｕｘｕｒｙ　Ｉｎｎ　壬生別邸,京都市下京区中堂寺壬生川町１７番地８,下京区,簡易宿所,R3.9.3,34.9966391,135.7457132,8,2,0,65,7,21,4
id_625,寧寧の道,京都市南区唐橋堂ノ前町１２番地４,南区,簡易宿所,H31.4.5,34.9782014,135.7376748,9,12,7,77,1,41,2
id_626,霖屋,京都市下京区七条御所ノ内中町１３番地,下京区,簡易宿所,H30.1.30,34.9862535,135.7310487,4,10,0,55,7,35,0
id_627,ジャパニングホテル　ハッコウエン  JAPANING　HOTEL　HAKKOEN,京都市下京区新町通七条上る辰巳町731番地,下京区,簡易宿所,H28.6.20,34.9895349,135.7566706,5,16,22,65,0,66,2
id_628,優里庵,京都市右京区京北上黒田町水野２３番地１,右京区,簡易宿所,R6.3.7,35.2056218,135.732209,2,90,2,88,15,132,16
id_629,京都タワーホテル,京都市下京区烏丸通七条下る東塩小路町721-1,下京区,旅館・ホテル,S39.9.5,34.9875514,135.7592807,0,3,5,22,1,12,0
id_630,美盧八条源町別邸,京都市南区八条源町６２番地,南区,簡易宿所,R4.6.1,34.9835621,135.7440464,4,4,18,35,0,28,1
id_631,サクラハウス京都,京都市上京区中筋通大宮西入横大宮町２０４番地,上京区,簡易宿所,H29.5.31,35.0293373,135.7476009,44,17,3,83,10,139,3
id_632,炎林苑,京都市南区唐橋高田町１９番地６,南区,簡易宿所,H30.3.16,34.981398,135.7420582,2,20,166,91,4,198,3
id_633,曼　七本松ノ壱　ＩＣＨＩ,京都市中京区聚楽廻西町６４番地１０,中京区,簡易宿所,H29.4.13,35.0188479,135.7405741,0,16,1,70,6,47,2
id_634,Ｃｏｒｎｅｒ６,京都市中京区六角通堀川西入岩上町７２２番地,中京区,簡易宿所,R4.4.15,35.0074579,135.7508306,0,0,9,68,6,70,0
id_635,ａｐｉａ☆七条,京都市東山区鞘町通正面下る上堀詰町２６５番地１３,東山区,簡易宿所,H28.5.11,34.9905967,135.7681211,1,1,1,30,0,9,2
id_636,如意・二条城,京都市中京区西ノ京内畑町１８番地２３,中京区,簡易宿所,R6.6.27,35.0139899,135.738417,3,0,0,54,6,30,1
id_637,ゲストハウス　美盧　花畑町邸,京都市下京区七条通大宮西入花畑町５９２番地５,下京区,簡易宿所,H29.1.11,34.9896069,135.7477027,9,3,6,61,0,31,4
id_638,星屋,京都市下京区西洞院通六条上る金屋町４８７番地１,下京区,簡易宿所,R2.3.4,34.9941744,135.755325,1,10,12,35,5,34,1
id_639,京都小院（Ｋｙｏｔｏ　Ｓｈａｗ　Ｉｎｎ）,京都市南区西九条菅田町２８番地２,南区,簡易宿所,H30.1.31,34.9746584,135.7479526,1,1,18,42,0,27,0
id_640,清水小筑,京都市東山区五条橋東六丁目５３９番地１５、５３９番地１６,東山区,簡易宿所,R6.5.7,34.9950767,135.7801702,13,0,0,47,0,37,4
id_641,上七軒　億,京都市上京区今出川通七本松西入真盛町７１２番地,上京区,簡易宿所,H29.2.17,35.0303626,135.7383017,6,0,0,22,0,8,0
id_642,,京都市下京区綾小路通油小路西入西綾小路西半町８８番地　東側,下京区,施設外玄関帳場,,35.0022467,135.7530147,4,2,3,48,5,20,2
id_643,懐古的未来,京都市南区東九条中札辻町33番地3,南区,簡易宿所,H27.6.1,34.977113,135.7620299,3,1,0,36,1,31,0
id_644,Ｒｉｎｎ　四季十楽　六楽,京都市上京区下立売通油小路西入東橋詰町１８３番地３京都市上京区油小路通下立売上る近衛町１６５番地（家屋番号１８３番３　西から１軒目）,上京区,簡易宿所,R4.12.5,35.0203373,135.7531906,0,6,0,41,0,17,1
id_645,ゲストハウス美響（ひびき）,京都市東山区泉涌寺五葉ノ辻町７番地２０,東山区,簡易宿所,R2.8.25,34.9819252,135.7715651,4,0,5,31,1,14,0
id_646,いこいの里　久多キャンプ場,京都市左京区久多川合町３９５,左京区,簡易宿所,H16.11.18,35.2714713,135.8422134,13,32,64,97,18,165,11
id_647,ザ　新門前,京都市東山区新門前通大和大路東入西之町２３５番地,東山区,旅館・ホテル,R2.3.10,35.0061684,135.7746446,19,6,22,66,4,53,0
id_648,縁宿,京都市東山区問屋町通五条下る三丁目東橘町４４９番地１,東山区,簡易宿所,R6.7.31,34.9941716,135.7687044,25,14,25,69,3,82,11
id_649,ホテルフルバⅢ,京都市南区東九条中御霊町４３番地５　３Ｆ,南区,簡易宿所,R1.6.20,34.9787496,135.7614976,29,15,41,88,5,104,3
id_650,Ｃｒｏｓｓｒｏａｄｓ（クロスローズ）,京都市下京区夷馬場町45-14,下京区,簡易宿所,H12.11.22,34.9902884,135.745109,0,0,0,68,10,22,0
id_651,青山庵,京都市左京区古川町通三条上る二丁目東門前町５２３番地１６,左京区,簡易宿所,H29.8.8,35.0103912,135.7787873,2,1,7,28,8,27,2
id_652,蘇影・清影,京都市東山区大和大路通五条下る石垣町西側５２番地１,東山区,簡易宿所,R1.7.24,34.9947383,135.7715003,21,6,46,73,0,83,8
id_653,アーバン　イン　伏見,"京都市伏見区西大手町307-53,107及び周防町331-41",伏見区,旅館・ホテル,H11.4.16,34.9325597,135.759027,40,1,5,61,1,61,6
id_654,ＳＥＶＥＮ　ＳＴＡＹ　ＯＵＣＨＩ,京都市東山区鞘町通七条上る下堀詰町２５７番地２の４（２階）,東山区,簡易宿所,R1.12.11,34.9901088,135.768176,27,1,27,78,4,79,11
id_655,Ｋｙｏｔｏ Ｃｏｚｙ Ｈｏｕｓｅ 二条,京都市中京区壬生神明町１番地１３５,中京区,簡易宿所,R5.5.15,35.0066285,135.7383943,0,0,0,64,1,24,1
id_656,アリストンホテル京都十条,京都市南区上鳥羽勧進橋町２３番地,南区,旅館・ホテル,H30.5.9,34.9705095,135.7607058,0,2,11,27,1,22,0
id_657,Ｈｉ　Ｍｏｅｗ　Ｙａ,京都市東山区馬町通本町東入八丁目上馬町６０４番地２,東山区,簡易宿所,R5.5.31,34.9924838,135.7783243,9,2,7,39,0,23,0
id_658,京宿家　開智ももはな庵,京都市下京区富小路通仏光寺下る筋屋町１４４番地９,下京区,簡易宿所,H26.10.8,35.0005669,135.7652235,1,0,24,43,1,27,0
id_659,京都拾美堂,京都市上京区黒門通一条半丁上る東入横神明町７９５番地１,上京区,簡易宿所,R4.11.8,35.0269217,135.7508434,44,15,53,76,8,147,2
id_660,地遊舎,京都市左京区久多下の町２７８番地,左京区,簡易宿所,H29.3.31,35.267081,135.8193533,1,26,44,59,7,102,22
id_661,,京都市左京区新丸太町７０－７,左京区,施設外玄関帳場,,35.0106906,135.7735491,5,0,0,52,0,40,0
id_662,梵居・Love stage,京都市東山区三条通南裏白川筋西入三丁目南西海子町４４３番地，４４３番地３，４４３番地４，４４３番地５,東山区,簡易宿所,H29.5.11,35.0089927,135.7788429,30,2,34,90,7,94,18
id_663,京蘭　杏花邸,京都市東山区大和大路通五条下る二丁目上梅屋町１８８番地１２,東山区,簡易宿所,R6.3.15,34.9927742,135.7724077,21,1,19,63,0,52,9
id_664,Ｗａｎｄｅｒ　Ｋｙｏｔｏ　Ｎａｎａｊｏ,京都市下京区三ノ宮町通七条上る下三之宮町３０１番地,下京区,簡易宿所,R5.10.11,34.9898344,135.7660937,3,8,32,36,3,57,0
id_665,旅館　ホテル　クラウン,京都市右京区西院金槌町1-1.2-1,右京区,旅館・ホテル,S61.2.21,35.0078156,135.7263404,0,12,0,26,3,17,2
id_666,ゲストハウス　時遊人,京都市下京区東洞院通五条下る三丁目和泉町５２４番５４７番３,下京区,簡易宿所,H22.9.21,34.9949837,135.7612636,3,5,11,34,3,28,1
id_667,京恋　大徳寺,京都市北区紫竹高縄町７番地３,北区,簡易宿所,H30.12.5,35.0458238,135.749387,9,1,4,37,0,19,0
id_668,梅渓居,京都市下京区仏具屋町通五条下る上錫屋町６７番地１,下京区,簡易宿所,R1.5.16,34.9951743,135.7558468,0,8,9,34,0,23,2
id_669,ＨＯＴＥＬ　ＫＩＲＯ　ＫＹＯＴＯ　ＳＴＡＴＩＯＮ,京都市南区東九条上御霊町４０番地２,南区,簡易宿所,H30.4.17,34.9798412,135.7637609,0,8,1,37,0,34,0
id_670,香柏　二条　箏,京都市上京区千本通上長者町下る革堂前之町１２２番地２,上京区,簡易宿所,R1.5.30,35.0227095,135.7426782,35,13,0,42,3,64,1
id_671,紡　西洞院花屋町,京都市下京区西洞院通六条下る西側町４９２番地,下京区,簡易宿所,R2.6.22,34.9938001,135.7548876,3,0,12,31,0,18,2
id_672,コートヤード・バイ・マリオット京都四条烏丸,京都市下京区烏丸通綾小路下る二帖半敷町６６８番地、京都市下京区仏光寺通室町東入釘隠町２５２番地４,下京区,旅館・ホテル,R7.8.25,35.0014439,135.7592765,15,35,7,92,3,92,8
id_673,ＨＯＴＥＬ　ＭＡＳＴＡＹ　神宮道,京都市東山区三条通白川橋東入三丁目夷町１５９番地,東山区,簡易宿所,R1.8.5,35.0096206,135.7830551,0,3,5,23,0,8,0
id_674,京町家　翠庭庵,京都市南区東九条宇賀辺町２４番地７,南区,簡易宿所,R6.12.2,34.9786627,135.7649831,8,0,34,61,3,53,2
id_675,Ｐｒｉｖａｔｅ　Ｖｉｌｌａ　ＺＥＮ,京都市南区西九条横町３７番地,南区,簡易宿所,R7.9.22,34.984086,135.7506869,0,0,0,53,2,43,0
id_676,聚楽第　このは,京都市中京区聚楽廻東町３１番地１５（南側）,中京区,簡易宿所,R6.10.11,35.0186206,135.7420749,27,44,18,98,11,164,9
id_677,京の嵐　山崎,京都市東山区大和大路通五条上る山崎町３２９番地，３２９番地１,東山区,簡易宿所,H30.2.27,34.9964697,135.7719447,0,0,4,31,1,9,2
id_678,旅籠　吾妻,京都市下京区二人司町３番地３,下京区,簡易宿所,H29.9.8,34.9923113,135.7462002,0,12,0,48,0,20,0
id_679,ト一庵,京都市上京区西洞院通一条上る大峰図子町６２６番地１，６２８番地１，６２８番地２，６３０番地２，６３０番地３,上京区,簡易宿所,H30.6.15,35.0269665,135.7552545,9,18,39,99,13,84,3
id_680,御屋・玉蘭,京都市下京区西七条市部町９２番地１１,下京区,簡易宿所,R7.5.19,34.9904284,135.7349994,11,35,8,86,18,86,8
id_681,次郎邸,京都市南区東九条河辺町２３番地１５,南区,簡易宿所,R7.2.27,34.9743788,135.7593634,12,15,44,87,1,141,7
id_682,ＫＹＯＭＡＣＨＩＹＡ－ＳＵＩＴＥ　ＲＩＫＹＵ,京都市東山区東大路通松原上る三丁目下弁天町６１番地４,東山区,簡易宿所,H29.9.20,34.9999348,135.7778891,0,7,8,43,0,16,0
id_683,伯楽旅居,京都市北区大将軍一条町１４２番地,北区,簡易宿所,R7.8.7,35.026012,135.7286316,1,0,7,28,2,19,0
id_684,鴨川せせらぎ庵　蘭,京都市下京区屋形町２０番地１（南から２軒目）,下京区,簡易宿所,R3.4.26,34.9827727,135.7674879,2,29,7,81,2,45,4
id_685,京町屋　プライベートレジデンス  祇園　竹の葉（takenoha）,京都市東山区三条白川橋二筋目下る西入北木之元町５３２番地４,東山区,簡易宿所,H30.12.21,35.0085646,135.7771465,5,10,29,108,1,51,2
id_686,ゲストハウス京粋庵　楽邸,京都市南区東九条河西町３９番地１,南区,簡易宿所,R2.11.4,34.9800006,135.7667164,22,14,81,74,2,156,1
id_687,谷町君　星屋　樨ノ宿,京都市東山区松原通大和大路東入二丁目轆轤町１０１番地４９，１０１番地５０，１０１番地５１，１０１番地５２，１０１番地５３,東山区,簡易宿所,R3.9.10,34.9971009,135.7742271,0,5,23,72,2,41,8
id_688,Ｓｌｏｏｍ,京都市東山区大黒町通松原下る二丁目山城町２７８番地１４,東山区,簡易宿所,R6.8.22,34.9976619,135.7713429,10,3,0,37,0,13,0
id_689,ダース,京都市下京区東洞院通正面下る笹屋町270番地,下京区,簡易宿所,H27.4.16,34.9910161,135.7612833,2,5,143,83,40,208,16
id_690,奏　京都駅南,京都市南区東九条室町３０番地３７,南区,簡易宿所,R1.9.27,34.9826814,135.757093,1,4,2,37,1,15,0
id_691,梵定寺,京都市左京区田中関田町３３－５,左京区,簡易宿所,H21.7.15,35.0278283,135.7748959,0,0,16,46,1,41,4
id_692,大日寺の宿・京都吉祥院,京都市南区吉祥院稲葉町１０番地,南区,旅館・ホテル,R3.6.22,34.9693179,135.7388612,1,7,4,49,2,16,1
id_693,,京都市南区東九条下殿田町２６番地２（１Ｆ）,南区,施設外玄関帳場,,34.9806966,135.7581208,5,12,31,57,3,53,1
id_694,東急ステイ京都三条烏丸はなれ,京都市中京区両替町通姉小路下る柿本町４１０番地２,中京区,旅館・ホテル,H30.12.3,35.0097683,135.7586877,0,10,9,40,3,25,1
id_695,長安宿・京都・東本願寺,京都市下京区油小路通花屋町下る仏具屋町２３９番地１,下京区,簡易宿所,R7.8.25,34.9923825,135.7536348,2,5,9,29,3,23,0
id_696,鯉屋,京都市東山区耳塚通五条下る二丁目蛭子町北組２６５番地,東山区,簡易宿所,R4.8.18,34.9931368,135.7707134,54,5,3,80,3,82,8
id_697,花鈴　京都宿　風華,京都市南区西九条院町２３番地１０,南区,簡易宿所,R3.7.21,34.9822814,135.7566243,0,0,16,39,3,85,2
id_698,粟田口　宇庵　花,京都市東山区粟田口鍛冶町６番地,東山区,簡易宿所,H29.5.10,35.0087536,135.7849027,2,6,20,75,0,37,8
id_699,御宿　河原町五条,京都市下京区河原町通上枳殻馬場上る若宮町４７７番地,下京区,簡易宿所,R2.3.10,35.0012678,135.7692946,3,16,11,32,5,45,1
id_700,「京の温所」丸太町,京都市中京区車屋町通夷川上る少将井御旅町３４１番地２,中京区,簡易宿所,R2.4.21,35.0152326,135.7602591,2,16,16,54,1,57,0
id_701,Ｅｎｚｏ　Ｋｙｏｔｏ　Ｇｏｊｏ,京都市下京区富小路通松原下る本上神明町４６２番地，４６２番地１,下京区,簡易宿所,H30.12.26,34.9985529,135.7649639,22,16,5,67,0,51,4
id_702,中之庵,京都市上京区猪熊通丸太町下る中之町５１９番地２３,上京区,簡易宿所,R2.2.26,35.0165562,135.751015,0,0,0,20,0,10,0
id_703,秀の町家　西陣千本,京都市上京区上長者町通千本東入愛染寺町４９３番地２,上京区,簡易宿所,R2.1.10,35.0236597,135.743777,3,1,0,46,10,62,1
id_704,ＨＯＴＥＬ　ＩＮ　ＴＨＥ　ＧＲＥＥＮ,京都市伏見区竹田西小屋ノ内町１番地,伏見区,簡易宿所,H30.4.19,34.9529881,135.7470681,8,0,0,27,4,21,0
id_705,ゆるる,京都市中京区姉小路通柳馬場西入木之下町２８８番地,中京区,簡易宿所,H25.8.7,35.0098746,135.7626103,0,3,1,23,0,5,0
id_706,えん,京都市東山区本町二丁目７０番地６,東山区,簡易宿所,H28.8.2,34.9943103,135.7702227,30,8,5,103,1,47,2
id_707,紡　三十三間堂,京都市東山区大和大路通五条下る三丁目下棟梁町２１２番地,東山区,簡易宿所,H31.1.23,34.9926138,135.7712551,9,2,1,51,1,26,9
id_708,京の町　白凰,京都市東山区福稲下高松町４番地７,東山区,簡易宿所,H30.4.26,34.9735767,135.7696024,27,8,26,94,4,107,38
id_709,料亭　わらびの里,京都市山科区小山中島町２８番地,山科区,簡易宿所,H23.6.24,34.9820661,135.8374564,16,0,1,41,1,20,1
id_710,エムズホテル　三条大宮,京都市中京区大宮通姉小路下る姉大宮町西側７７番地１,中京区,簡易宿所,R3.9.13,35.0088853,135.7486286,19,32,9,84,6,96,0
id_711,貴船べにや,京都市左京区鞍馬貴船町17-1，18-1,左京区,旅館・ホテル,H9.12.3,35.1167756,135.7611211,10,98,8,88,18,177,8
id_712,靈氣庵Ⅱ　京都綾小路,京都市下京区綾小路通醒ケ井西入西綾小路西半町８８番地　北側,下京区,簡易宿所,R7.10.1,35.0022467,135.7530147,11,0,6,69,0,58,4
id_713,季・藤ノ木,京都市南区西九条藤ノ木町３番地７,南区,簡易宿所,R2.8.5,34.9837295,135.7521356,6,19,4,62,2,53,2
id_714,ＭＡＴＡＨＡＲＩ　ＡＮＮＥＸ　ＳＴＡＹ,京都市左京区北白川久保田町１６番地３　２階,左京区,簡易宿所,H30.9.26,35.0292337,135.7913308,0,31,20,57,0,65,0
id_715,ビスケハウス,京都市南区西九条御幸田町２４番地４,南区,簡易宿所,R6.7.23,34.9755216,135.7495165,0,5,0,50,0,20,1
id_716,京煕　京都駅,京都市南区西九条院町２３番地１１,南区,簡易宿所,R7.4.8,34.9821332,135.7566798,2,23,49,95,4,172,4
id_717,Ａｐａｒｔｍｅｎｔ　Ｓｔａｙｓ　Ｋｙｏｔｏ,京都市中京区押小路通高倉東入竹屋町１４５番地,中京区,簡易宿所,R5.2.3,35.0121622,135.7624587,34,5,14,102,10,130,3
id_718,京恋東寺　三国蜀,京都市南区八条源町６８番地１３,南区,簡易宿所,H30.3.27,34.9834558,135.7443159,2,25,77,91,6,135,3
id_719,育書居,京都市左京区川端より二筋目仁王門下る新丸太町７０番地４,左京区,簡易宿所,H30.4.27,35.0107323,135.7735484,3,6,9,25,3,23,0
id_720,ザ ロイヤルパークホテル アイコニック 京都,京都市中京区東洞院通押小路下る船屋町４２０番地，御池通高倉西入高宮町１９４番地，間之町通押小路下る高田町５１０番地２,中京区,旅館・ホテル,R4.3.15,35.0111943,135.761243,77,32,32,85,8,149,0
id_721,弎京匯,京都市中京区壬生御所ノ内町１０番地６,中京区,簡易宿所,R2.10.26,35.0059402,135.7440939,6,41,2,105,1,61,3
id_722,Ｇｉａｐｐｏ　ｆｒａｎｃａ　Ｋｙｏｔｏ（ジャポフランカ京都）,京都市左京区新高倉通仁王門下る福本町４２５番地,左京区,簡易宿所,R6.2.16,35.0111149,135.7761947,0,0,0,34,0,6,4
id_723,ひとあかり　東山,京都市左京区聖護院西町１２番地８,左京区,簡易宿所,R7.11.25,35.0191908,135.7787271,1,0,6,25,1,12,0
id_724,ＫＹＯＳＴＡＹいろは　東寺南,京都市南区西九条比永城町５１番地４,南区,簡易宿所,H30.7.30,34.978362,135.7497849,2,17,39,73,4,87,3
id_725,東横イン京都四条大宮,京都市中京区壬生坊城町６番地２,中京区,旅館・ホテル,H10.11.30,35.0039467,135.7473418,23,4,10,70,4,41,0
id_726,関西セミナーハウス,京都市左京区一乗寺竹ノ内町２３,左京区,旅館・ホテル,H25.4.8,35.0505636,135.8037214,32,41,47,91,22,163,11
id_727,ＨＯＭＡＮＮ　ＣＯＮＣＥＰＴ　ＫＹＯＴＯ,京都市東山区一橋野本町４６番地１７,東山区,簡易宿所,R3.1.12,34.9863313,135.7687853,4,0,6,32,0,15,4
id_728,Ｔｓｕｒｕ　Ｋａｍｅ　Ｈｏｕｓｅ,京都市上京区椹木通大宮西入中書町６７６番地,上京区,簡易宿所,H30.5.15,35.0186538,135.748591,56,17,26,77,1,106,3
id_729,Ａｎｇｅｌ’ｓ　Ｐａｔｈ　Ⅰ,京都市下京区東中筋通六条上る天使突抜四丁目４５９番地,下京区,簡易宿所,H29.6.23,34.9952122,135.7542035,3,8,11,34,0,24,0
id_730,東福寺　通天庵　別館　紺碧,京都市東山区福稲御所ノ内町２２番地１９、２２番地２３、２２番地２４（北側）,東山区,簡易宿所,R5.9.4,34.9783175,135.769643,0,1,17,32,1,23,0
id_731,ＪＰＲＥＳＥＲＶＥ　東寺,京都市南区大宮通八条下る二丁目東寺東門前町８０番地,南区,簡易宿所,R1.11.26,34.9828899,135.7490852,2,6,11,30,0,21,0
id_732,Kanon House,京都市東山区大和大路通七条下る二丁目辰巳町５８８番地９,東山区,簡易宿所,H29.5.1,34.9878854,135.7705467,27,8,32,88,5,85,11
id_733,電源開発　深草荘,京都市伏見区深草願成町18-5,伏見区,旅館・ホテル,S59.3.29,34.9711166,135.774625,6,5,7,83,8,37,9
id_734,祇園せいじ庵,京都市東山区大和大路通四条下る二丁目亀井町３４番４,東山区,簡易宿所,H26.6.9,35.002632,135.7724613,13,1,19,67,0,46,8
id_735,花鈴　京都宿　琴音,京都市南区東九条中殿田町１５番地７,南区,簡易宿所,R2.7.14,34.9813696,135.7572995,1,7,57,55,2,69,0
id_736,宿家　西ノ京,京都市中京区西ノ京池ノ内町２９番地３７,中京区,簡易宿所,R5.12.4,35.0091282,135.7469624,6,5,30,81,11,119,3
id_737,ホテル　エクセレンス・京都駅八条口,京都市南区西九条鳥居口町５,南区,旅館・ホテル,H25.10.9,34.9834703,135.754042,0,1,0,56,2,29,1
id_738,雅　ＭＩＹＡＢＩ,京都市南区西九条横町５２番地１,南区,簡易宿所,H29.6.1,34.9835368,135.7506587,14,15,58,98,5,99,3
id_739,プライベートレジデンス二条城　友,京都市中京区二条通堀川東入矢幡町３００番地１,中京区,簡易宿所,R7.11.13,35.0137555,135.7522929,12,0,0,52,0,30,0
id_740,櫞舎　隠三十三間堂,京都市東山区馬町通妙法院北門前妙法院前側町４２９番地１２,東山区,簡易宿所,H29.8.30,34.9914289,135.7734724,12,0,2,47,2,23,4
id_741,京ノ家　五条店,京都市下京区東洞院通五条下る二丁目福島町５１２番地４,下京区,簡易宿所,H30.6.22,34.9954374,135.7608634,8,36,34,53,7,97,0
id_742,唐廊,京都市南区唐橋堂ノ前町２７番地１０,南区,簡易宿所,R1.6.4,34.9788233,135.7374504,3,1,52,49,0,59,1
id_743,櫞舎　隠西願寺,京都市下京区若宮通六条下る若宮町５４９番地２,下京区,簡易宿所,H29.8.31,34.9936485,135.7556617,12,23,47,91,3,95,6
id_744,ゲストハウス　宮川町花かんざし,京都市東山区新宮川町通松原下る西御門町４６２番地,東山区,簡易宿所,H29.9.11,34.9979111,135.7702892,2,6,14,57,2,26,1
id_745,京町家雅　梅林庵,京都市東山区清水門前松原産寧坂西入清水四丁目１７２番地２０,東山区,簡易宿所,H29.7.11,34.9967091,135.7778714,1,0,1,34,1,7,2
id_746,しづやＫＹＯＴＯ　ＯＭＯＹＡ,京都市下京区七条通河原町東入材木町460番地,下京区,簡易宿所,H28.5.13,34.9896707,135.7644829,14,5,55,91,25,127,8
id_747,ＳＡＩＺＥＮ松室ＳＴＡＹ,京都市西京区松室庄田町１番地９　２階,西京区,簡易宿所,H28.6.7,34.9947657,135.6895009,0,4,36,49,0,46,2
id_748,平新,京都市中京区蛸薬師通高倉西入泉正寺町314，316,中京区,旅館・ホテル,S46.10.6,35.0061021,135.7617244,44,16,1,66,8,78,2
id_749,松の恋,京都市南区西九条開ケ町３８番地３,南区,簡易宿所,R2.3.30,34.9775453,135.7518954,32,3,8,102,5,78,3
id_750,京　十一宿　島原,京都市下京区中堂寺鍵田町１番地１１,下京区,簡易宿所,R2.8.5,34.9950576,135.7459467,9,0,36,62,32,83,0
id_751,株式会社　洛雲荘,京都市北区雲ケ畑出谷町343,北区,旅館・ホテル,S32.10.1,35.1251606,135.7155472,1,6,0,31,2,12,0
id_752,京町屋　半夏生,京都市南区東九条西岩本町３番地７,南区,簡易宿所,R7.3.3,34.9827367,135.7630481,13,3,61,94,13,145,3
id_753,calm stay Nijyo,京都市中京区聚楽廻東町８番地８,中京区,簡易宿所,R5.11.15,35.0177095,135.7424436,23,23,10,70,6,68,2
id_754,京町家　ＩＮＡＲＩ,京都市伏見区深草稲荷御前町91番地,伏見区,簡易宿所,H27.5.22,34.9671525,135.7708414,58,0,0,44,3,66,4
id_755,徳平庵・檜,京都市右京区京北上弓削町弾正８番地,右京区,簡易宿所,H31.2.1,35.2036796,135.639922,2,1,3,31,0,11,1
id_756,京都禅ハウス,京都市南区東九条室町２９番地９,南区,簡易宿所,R5.9.20,34.9828333,135.7573297,11,14,7,90,4,49,3
id_757,稲荷凰庵　暦,京都市伏見区深草稲荷鳥居前町２２番地３,伏見区,簡易宿所,H30.3.28,34.9666045,135.7687136,44,6,41,79,0,94,1
id_758,洛庵．北野,京都市上京区今出川通御前通東入社家長屋町６８８番地,上京区,簡易宿所,H31.3.27,35.0137877,135.7662012,40,2,0,67,4,47,0
id_759,京町家　Ｍｅｌｌｏｗ　Ｓｔａｙ　五条烏丸,京都市下京区室町新町の間松原下る徳万町２０２番地７,下京区,簡易宿所,R4.3.24,34.9979588,135.7575698,16,32,55,97,22,176,20
id_760,夏嵐・四条大宮,京都市下京区綾小路通大宮西入坊門町７７６番地３,下京区,簡易宿所,H31.4.22,35.002081,135.7476842,13,32,49,82,22,126,6
id_761,鈴　プレミアム　八重,京都市下京区東中筋通六条下る学林町２８２番地１,下京区,簡易宿所,H31.2.26,34.9938458,135.7543025,0,5,0,35,8,20,1
id_762,町家レジデンスイン　まりこうじ,京都市下京区柳馬場通仏光寺下る万里小路町１７５番地,下京区,簡易宿所,R5.1.18,35.0005875,135.7638072,0,10,20,44,0,40,2
id_763,京恋　竹林邸,京都市東山区六波羅裏門通東入二丁目竹村町１４６番地６,東山区,簡易宿所,R2.12.8,34.9960571,135.7753335,1,2,9,34,1,16,2
id_764,Ｎａｚｕｎａ　京都　二条城,京都市中京区油小路通夷川下る薬屋町５８０番地,中京区,簡易宿所,H28.2.9,35.0146997,135.7537127,54,29,10,85,8,103,0
id_765,Ｎａｋａ　Ｈｏｕｓｅ　２,京都市伏見区深草フケノ内町１４番地１１　３Ｆ,伏見区,簡易宿所,R2.4.7,34.9671473,135.7676212,0,0,5,20,1,9,2
id_766,君の家,京都市南区八条内田町６０番地７,南区,簡易宿所,H29.8.22,34.9809395,135.7449637,0,29,6,59,3,122,0
id_767,Ｓｔａｙ ＳＡＫＵＲＡ・京都　東山白川,京都市東山区三条通南裏二筋目白川筋西入堤町５０７番地１，５０７番地２,東山区,簡易宿所,H30.11.13,35.008392,135.7794461,21,8,26,95,1,70,2
id_768,Ｔａｒｏｕ　ｈｏｕｓｅ,京都市上京区上長者町通千本西入五番町１７３番地６,上京区,簡易宿所,H29.5.2,35.0233396,135.7417991,169,60,25,103,10,311,4
id_769,洛庵．上七軒,京都市上京区今出川通御前通東入社家長屋町６９０番地３（１階部分）,上京区,簡易宿所,R2.2.12,34.9872052,135.774454,19,0,8,48,0,63,1
id_770,ＡＢｉｚ　ｈｏｔｅｌ,京都市中京区東木屋町通四条上る三丁目材木町１７８番地４、１７８番地,中京区,旅館・ホテル,R5.9.14,35.0079588,135.7707654,34,5,34,94,21,107,7
id_771,今熊野テラス　乾山庵,京都市東山区今熊野南日吉町１１１番地１８,東山区,簡易宿所,H30.11.22,34.9856266,135.7788655,4,1,5,25,1,11,0
id_772,インディゴハウス園１階,京都市東山区大和大路通四条下る四丁目小松町５６３番地２２,東山区,簡易宿所,H27.10.29,35.0001357,135.7751576,4,1,26,94,4,40,2
id_773,慶有魚　泉,京都市中京区西ノ京池ノ内町２６番地３９,中京区,簡易宿所,R3.11.1,35.0089571,135.7456023,15,6,0,31,0,21,0
id_774,ＲＥＳＩ　ＳＴＡＹ　ＨＥＡＲＴ,京都市下京区東洞院通七条上る飴屋町２５３番地,下京区,簡易宿所,H31.3.26,34.9898207,135.7609061,5,0,0,47,0,27,2
id_775,ＡＬＦＡ,京都市伏見区羽束師菱川町１４７番地,伏見区,簡易宿所,H22.9.8,34.9327567,135.714958,7,8,8,88,8,67,30
id_776,京宿　日和,京都市中京区聚楽廻中町４１番地５,中京区,簡易宿所,H28.10.26,35.0181024,135.7413319,4,1,3,30,0,16,0
id_777,宗恵庵,京都市下京区西高瀬川筋五条下る平居町２４番地,下京区,簡易宿所,H28.8.4,34.9949882,135.7660289,0,0,12,36,13,39,1
id_778,大原の里,京都市左京区大原草生町４１，４２，４８３番地,左京区,旅館・ホテル,H4.7.2,35.1230121,135.8224677,11,4,41,74,40,123,11
id_779,其中庵,京都市東山区八坂鳥居前東入る円山町7番地3先市有地,東山区,旅館・ホテル,H9.3.13,35.0036202,135.782797,30,6,3,70,9,79,30
id_780,京都粋伝庵はなれ　ホステル翆,京都市上京区上立売通浄福寺半丁西入上る真倉町７３２番地１，７３２番地２，７３４番地１，７３４番地２,上京区,簡易宿所,H30.5.15,35.0338704,135.7447068,48,11,20,70,6,126,3
id_781,京都の宿－ぎをんの月,京都市東山区四条通大和大路東入祇園町北側３４７番地１８,東山区,旅館・ホテル,R6.5.30,35.0047793,135.7768102,4,7,23,89,4,67,11
id_782,鈴　京都宮川筋　ｈｉｔｏｔｏｓｅ　穐,京都市東山区宮川筋四条下る宮川筋四丁目２９７番地１０、２９７番地２,東山区,簡易宿所,R6.1.9,35.0000374,135.7710965,21,1,19,68,0,48,6
id_783,KOKO HOTEL Residence 京都 二条城,京都市中京区釜座通御池上ル下松屋町７２４番地,中京区,簡易宿所,R1.6.18,35.0115048,135.7557239,7,1,0,41,3,14,0
id_784,ＧＵＥＳＴ　ＨＯＵＳＥ　ＭＩ・ＹＡ・ＢＩ（３階）,京都市中京区三条通烏丸東入梅忠町２０番地１東洞院通三条下る三文字町２０５番地１　烏丸アネックス３階,中京区,簡易宿所,H30.4.16,35.0078968,135.7607593,12,0,5,54,3,50,0
id_785,ゲストハウス宮之軒,京都市中京区壬生坊城町９番地３９,中京区,簡易宿所,R1.8.7,35.0040792,135.7469515,7,1,3,32,2,29,0
id_786,プライベートレジデンス　二条城　和,京都市中京区夷川通小川東入東夷川町６３６番地８,中京区,簡易宿所,H30.6.4,35.0147965,135.7543834,83,38,2,105,10,135,0
id_787,樂　院町　菫,京都市南区西九条院町２２番地２４,南区,簡易宿所,R7.9.1,34.9825617,135.7564197,10,0,7,71,4,21,0
id_788,京待家　喜々（ＫｉＫｉ）,京都市中京区西ノ京池ノ内町１８番地４０,中京区,簡易宿所,H29.5.1,35.0104907,135.7469809,13,42,5,47,10,93,1
id_789,休兵衛,京都市東山区高台寺北門前通下河原東入鷲尾町505-3,東山区,簡易宿所,H26.6.12,35.001455,135.7794239,13,0,30,67,0,49,1
id_790,嵐山　辨慶,京都市右京区嵯峨天龍寺芒ノ馬場町34,右京区,旅館・ホテル,S60.10.3,35.0136161,135.6752015,14,44,41,107,22,142,20
id_791,麗閣八坂,京都市東山区大和大路通四条下る四丁目小松町５６９番地６,東山区,簡易宿所,H29.11.7,34.9984671,135.7756668,6,0,1,35,1,12,2
id_792,京蘭ー瑠安邸,京都市左京区聖護院川原町３５番地２４,左京区,簡易宿所,H28.1.8,35.0177888,135.7772713,7,21,5,63,2,76,0
id_793,砺波詰所,京都市下京区不明門通万年寺下る高槻町361,下京区,簡易宿所,S39.9.11,34.993182,135.760576,0,0,31,54,7,60,2
id_794,,京都市上京区油小路通中立売下る甲斐守町１２１番地１９,上京区,施設外玄関帳場,,35.0240031,135.7531664,44,2,19,73,8,116,2
id_795,雅順,京都市東山区三条通白川橋東入三丁目夷町１６５番地２,東山区,簡易宿所,H26.1.6,35.0091676,135.7832508,2,2,0,22,0,4,0
id_796,,京都市伏見区深草六反田町１番地８,伏見区,施設外玄関帳場,,34.9705749,135.7678619,157,9,52,101,11,254,15
id_797,ホテル　エミオン　京都,京都市下京区朱雀堂ノ口町２０番地４,下京区,旅館・ホテル,R2.7.17,34.9895852,135.7422375,37,35,55,111,25,163,6
id_798,ゲストハウス　和楽庵,京都市左京区聖護院山王町19-2,左京区,簡易宿所,H18.7.6,35.0175348,135.7792126,0,23,26,58,12,114,1
id_799,ゲストハウス東山,京都市東山区今熊野南日吉町３０番地２２,東山区,簡易宿所,H22.10.25,34.9844941,135.7784351,71,1,4,74,4,91,11
id_800,,京都市上京区千本通笹屋町上る笹屋町３丁目６４１,上京区,施設外玄関帳場,,35.028445,135.742681,65,20,34,86,1,172,3
id_801,京都ユウベルホテル,京都市南区東九条石田町３９番地，３９番地３，４１番地３，４１番地４,南区,旅館・ホテル,H31.3.29,34.9735733,135.761606,2,3,52,88,4,96,3
id_802,ＩＲＯＲＩ京都駅東本願寺前,京都市下京区東洞院通正面東入廿人講町３３番地,下京区,簡易宿所,H30.2.15,34.991434,135.7612825,0,8,12,34,3,27,0
id_803,樂安居　院町　蓮,京都市南区西九条院町２４番地１２,南区,簡易宿所,R2.7.28,34.9821624,135.7563024,8,12,39,77,0,81,0
id_804,二条庵,京都市中京区聚楽廻東町３１番地９,中京区,簡易宿所,H29.1.17,35.0190055,135.7417113,25,21,10,71,1,57,0
id_805,Ｋｙｏｔｏ　Ｍａｃｈｉｙａ　銭屋町　朱,京都市下京区的場通新町東入銭屋町２５８番地７,下京区,簡易宿所,R1.10.24,34.9943679,135.7576702,1,0,0,47,7,33,2
id_806,二条　すみれ庵,京都市中京区姉小路通堀川東入鍛冶町１７２番地８他,中京区,簡易宿所,H27.12.10,35.0094321,135.7530135,30,26,10,90,8,88,0
id_807,ＴＯＭＯＲＩ,京都市下京区三ノ宮町通正面上る富松町２５０番地三ノ宮町通正面上る富浜町１８３番地１,下京区,簡易宿所,H30.4.27,34.9921283,135.7659456,15,32,52,96,18,158,1
id_808,ゲストハウス　小さな町家の美術館　鶴屋定家,京都市東山区高台寺南門通下河原東入桝屋町349番地23,東山区,簡易宿所,H27.9.7,34.9982309,135.7806764,6,9,4,109,1,54,15
id_809,ホスタ東寺　櫻,京都市南区東九条西山町２６番地４,南区,簡易宿所,H30.8.29,34.9786817,135.7551897,1,1,34,56,0,41,0
id_810,悠・南聖町,京都市中京区西ノ京南聖町１４番地４,中京区,簡易宿所,R6.12.5,35.0094096,135.7431223,0,16,2,28,2,36,0
id_811,ヴィーガン民宿三匹猫（Vegan Minshuku SanbikiNeko）,京都市東山区今熊野南日吉町９０番地,東山区,簡易宿所,H30.8.10,34.9853245,135.7797653,37,10,31,107,5,87,2
id_812,京蘭　柳月邸,京都市伏見区深草森吉町６番地２３,伏見区,簡易宿所,R6.8.14,34.9713866,135.7698027,60,1,158,91,10,242,11
id_813,京都　松や,京都市東山区本町六丁目１５番地,東山区,簡易宿所,H28.11.22,34.9887972,135.7697239,6,1,5,29,1,15,0
id_814,Ｓｔａｙ　ＳＡＫＵＲＡ　京都　二条四季,京都市中京区聚楽廻松下町３番地１３,中京区,簡易宿所,H30.3.22,35.0181062,135.7379524,95,44,16,111,30,213,3
id_815,百代家　京都　池ノ内町,京都市南区西九条池ノ内町３４番地１０,南区,簡易宿所,R7.10.22,34.98393,135.7525588,32,15,64,90,11,132,3
id_816,二条伊勢邸,京都市上京区日暮通丸太町下る南伊勢屋町７６８番地,上京区,簡易宿所,H31.3.19,35.0171604,135.7474824,25,8,0,68,1,39,2
id_817,ゲストハウス　茜別邸,京都市南区東寺東門前町５４番地１,南区,簡易宿所,H29.2.14,34.9829935,135.7497956,1,0,6,74,3,45,0
id_818,Ｓｔａｙ　ＳＡＫＵＲＡ　Ｋｙｏｔｏ　二条城西Ⅰ,京都市中京区聚楽廻中町５１番地１０,中京区,簡易宿所,H29.6.29,35.0167022,135.7411353,15,16,0,47,4,35,0
id_819,ホホホ座　ねどこ,京都市左京区浄土寺馬場町２番地７　２Ｆ,左京区,簡易宿所,H30.8.17,35.0234363,135.792589,0,8,6,22,0,15,0
id_820,京の宿　千鶴別邸,京都市東山区清閑寺霊山町５番地２１,東山区,簡易宿所,R2.7.16,34.9978711,135.7836304,2,0,9,40,1,17,4
id_821,和ゲストハウス高瀬川,京都市下京区木屋町通正面下る十禅師町１９６番地１,下京区,簡易宿所,R7.7.8,34.9907586,135.7657604,12,32,41,89,2,101,8
id_822,慶有魚　八坂,京都市東山区中道通松原上る月輪町９５番地４,東山区,簡易宿所,H30.10.30,34.9982259,135.7774861,2,0,3,18,0,7,0
id_823,花木馬,京都市南区東九条南松ノ木町１２番地７,南区,簡易宿所,R3.10.15,34.9769676,135.7647186,1,0,18,51,4,28,1
id_824,ＴＥＲＲＡＣＥ　ＫＩＹＯＭＩＺＵ　ＫＹＯＴＯ,京都市東山区東大路通五条上る遊行前町５８３番地３,東山区,簡易宿所,H30.3.20,34.9950103,135.7773781,2,0,14,54,1,28,9
id_825,ＭＯＮｄａｙ　Ａｐａｒｔ　Ｐｒｅｍｉｕｍ　京都駅鴨川,京都市下京区西木屋町通七条上る新日吉町１３７番地,下京区,簡易宿所,R6.11.22,34.989085,135.7652619,9,16,5,66,12,55,4
id_826,ムンド,京都市上京区日暮通下立売上る天秤町５９６番地,上京区,簡易宿所,H22.7.14,35.0204281,135.747869,74,4,4,102,13,212,4
id_827,柏・清水２,京都市東山区馬町通妙法院北門前妙法院前側町４２７番地１３,東山区,簡易宿所,R3.4.27,34.9915226,135.7740002,2,3,0,52,0,9,1
id_828,Ｇｕｅｓｔ　ｈｏｕｓｅ　Ｎｉｊｏ　ｓｔａｔｉｏｎ　亮（Ｒｙｏ）,京都市中京区壬生中川町９番地１３,中京区,簡易宿所,H30.8.31,35.0084009,135.7369138,12,2,1,49,4,29,0
id_829,京都雅楼,京都市下京区高倉通仏光寺上る西前町３６７番地８、３６７番地９,下京区,簡易宿所,H30.4.25,35.0016374,135.7625251,11,4,41,82,18,83,6
id_830,梅苑邸,京都市東山区今熊野椥ノ森町１０番地３,東山区,簡易宿所,R6.11.27,34.9841755,135.7743742,0,0,2,50,3,19,9
id_831,ＨＯＰＥ ＴＲＥＥ　京都,京都市伏見区深草善導寺町１８番地１０、１８番地１１,伏見区,簡易宿所,R2.3.16,34.9467881,135.7582022,13,2,16,33,0,34,0
id_832,LANDFORM workshop cottage KEIHOKU,京都市右京区京北比賀江町中西１１番地６,右京区,簡易宿所,R5.10.27,35.1830015,135.6661629,14,16,7,65,0,40,2
id_833,優り草,京都市左京区新麩屋町通仁王門下る大菊町１０９番地,左京区,簡易宿所,R4.2.25,35.0117672,135.7742176,0,0,1,30,3,9,2
id_834,慶有魚　心居,京都市東山区本町八丁目７１番地,東山区,簡易宿所,R1.12.2,34.9870493,135.7699097,7,0,0,37,0,9,2
id_835,十四春旅館,京都市下京区諏訪町通松原下る弁財天町３２６番地,下京区,旅館・ホテル,H30.12.10,34.9984141,135.7586638,6,2,24,62,12,62,1
id_836,レジステイ　ＴＳＵＢＡＫＩ,京都市東山区宮川筋四条下る宮川筋五丁目３２９番地２,東山区,簡易宿所,H30.5.21,34.9988518,135.7704922,2,4,2,51,2,14,4
id_837,「京の温所」西陣　別邸,京都市上京区浄福寺通中筋下る竪亀屋町２６５番地１中筋通浄福寺東入菱屋町２７１番地１，２７３番地１,上京区,簡易宿所,R1.8.21,35.0290254,135.7456579,60,21,83,94,1,174,0
id_838,ぴーすはうす桜,京都市東山区大和大路通五条上る東入門脇町１８８番地１，１９３番地１２,東山区,簡易宿所,R3.8.19,35.0012678,135.7692946,13,3,0,52,2,26,0
id_839,三玉亭,京都市伏見区稲荷山官有地三ツ辻,伏見区,旅館・ホテル,S42.6.16,34.9701797,135.778656,44,5,0,70,6,66,9
id_840,ＣＡＭＰＴＯＮ　東山　ろく,京都市東山区大黒町通松原下る二丁目山城町２８５番地４,東山区,簡易宿所,R3.3.23,34.9972125,135.7713652,25,18,3,80,8,57,1
id_841,ろうじ屋,京都市中京区西ノ京池ノ内町２２－５８,中京区,簡易宿所,H22.6.10,35.0092174,135.7453095,0,0,3,18,1,16,0
id_842,ハイアットリージェンシー京都,京都市東山区三十三間堂廻リ６４４番地２,東山区,旅館・ホテル,H18.3.10,34.9878845,135.7717126,25,6,25,81,3,70,11
id_843,慶有魚　杉屋,京都市下京区松原通柳馬場西入杉屋町２８５番地６,下京区,簡易宿所,R2.8.26,34.999225,135.7635887,0,1,0,32,5,8,1
id_844,Ｔ’ｓ　Ｇｕｅｓｔ　Ｈｏｕｓｅ,京都市上京区千本通元誓願寺下る松屋町３９９番地２階,上京区,簡易宿所,H30.5.28,35.0288151,135.7421785,79,23,29,95,11,151,4
id_845,如意居,京都市左京区田中関田町３４番地１０,左京区,簡易宿所,H29.10.12,35.027774,135.7745177,7,0,7,29,3,39,2
id_846,恒和居,京都市下京区猪熊通高辻下る高辻猪熊町３４４番地,下京区,簡易宿所,R2.11.20,34.9999543,135.7507408,1,12,29,55,7,54,2
id_847,京都駅前蘭苑　Ｋｙｏｔｏ　ｓｔａｔｉｏｎ　Ｌａｎｙｅｎ,京都市南区東九条中殿田町１３番地１１,南区,簡易宿所,R6.4.30,34.9815982,135.7577177,0,2,7,27,1,21,1
id_848,うえむら,京都市東山区八坂鳥居前下る下河原町463-34,東山区,旅館・ホテル,S20.12.5,35.0001947,135.7793893,37,25,34,90,6,127,15
id_849,ＫＯＵ西陣,京都市上京区寺之内通浄福寺西入二丁目下る姥ケ北町７９２番地,上京区,簡易宿所,R1.8.16,35.0336513,135.7441146,5,11,15,69,0,67,0
id_850,野田家,京都市左京区大原戸寺町196,左京区,旅館・ホテル,S42.9.18,35.1076339,135.8241792,2,21,6,72,0,49,2
id_851,ＧＬＡＮＳＩＴ　ＫＹＯＴＯ　ＫＡＷＡＲＡＭＡＣＨＩ,京都市中京区河原町通四条上る米屋町３８０番地２,中京区,簡易宿所,H30.9.13,35.0046237,135.7696136,3,5,0,22,0,16,0
id_852,ＡＢホテル京都四条堀川,京都市下京区四条通堀川東入柏屋町５番地,下京区,簡易宿所,R1.8.1,35.0040573,135.7525049,13,5,39,86,15,82,6
id_853,都和旅館,京都市下京区東中筋通七条上る文覚町395番地,下京区,旅館・ホテル,H17.4.25,34.9901899,135.7546647,0,0,2,32,3,19,0
id_854,木原ビル２０１,京都市下京区綾小路通東洞院東入神明町２３３番地３木原ビル２階,下京区,簡易宿所,H29.12.25,35.0026255,135.762171,16,7,70,89,18,129,6
id_855,ゲストハウス宮之軒伏見稲荷～心～,京都市東山区本町通五条下る本町十九丁目４２７番地２,東山区,簡易宿所,R2.5.7,34.9738567,135.7708985,9,0,1,33,1,16,4
id_856,ＫＡＢＩＮ　Ｍａｃｈｉ,京都市下京区麩屋町通綾小路下る俵屋町２９８番地,下京区,簡易宿所,R5.6.28,35.0018241,135.7657512,3,0,2,31,0,6,0
id_857,京小宿　室町　ゆとね,京都市下京区室町新町の間松原下る徳万町１９９番地，２００番地,下京区,旅館・ホテル,H30.10.29,34.9984693,135.7575269,0,0,16,22,3,27,1
id_858,京都　四条高倉ホテル　ｇｒａｎｄｅｒｅｖｅｒｉｅ,京都市下京区高倉通四条下る高材木町２２５番地,下京区,旅館・ホテル,H30.10.25,35.0026291,135.7624924,1,0,0,66,12,19,2
id_859,喜舎,京都市上京区日暮通丸太町上る西入西院町７４７番地５０,上京区,簡易宿所,H30.4.17,35.0190083,135.7467796,113,2,0,58,8,132,5
id_860,,京都市南区東九条宇賀辺町２６番地３,南区,施設外玄関帳場,,34.9786135,135.7651587,0,0,0,20,0,8,0
id_861,清水家,京都市東山区松原通大和大路東入二丁目轆轤町１１８番地４,東山区,簡易宿所,H30.8.31,34.9979242,135.7751746,5,7,22,82,9,56,11
id_862,別邸　樹下,京都市東山区八坂塔之下星野町９３番地１４，９３番地１５,東山区,簡易宿所,R1.7.4,34.9985747,135.7780523,13,3,16,66,0,40,4
id_863,ＮＡＺＵＮＡ　京都　椿通　ＴＡＫＥ－２２,京都市下京区高辻通大宮西入坊門町８３６番地２２,下京区,簡易宿所,R2.6.1,34.9994657,135.7484493,0,2,36,72,12,59,4
id_864,東横イン京都五条大宮,京都市下京区大宮通五条下る２丁目西側中堂寺前町５０２－５,下京区,旅館・ホテル,H22.8.30,34.9945364,135.7488828,1,14,24,51,7,60,2
id_865,ホテルオークラ京都,京都市中京区河原町通二条南入一之船入町537番地の4,中京区,旅館・ホテル,H6.6.15,35.0118482,135.7694265,0,0,6,52,4,51,0
id_866,蒼　京都駅南,京都市南区西九条針小路町５８番地,南区,簡易宿所,R3.1.14,34.9828268,135.7515635,6,32,26,61,0,71,0
id_867,清水美居,京都市東山区五条通若宮八幡前東入慈法院庵町５９４番地,東山区,簡易宿所,R6.5.29,34.9929932,135.7757826,0,0,6,35,0,12,2
id_868,香柏　二条城北,京都市上京区日暮通丸太町上る西入西院町７４６番地７６,上京区,簡易宿所,R2.4.16,35.0188368,135.7464442,0,3,0,38,4,19,0
id_869,一棟貸し町家　珠乃,京都市中京区小川通二条下る古城町３６７番地１,中京区,簡易宿所,R6.10.22,35.0124199,135.7544967,30,35,12,97,1,86,3
id_870,栄の屋,京都市左京区丸太町通川端東入東丸太町１４番地３５,左京区,簡易宿所,H30.10.16,35.0169977,135.7735484,19,123,49,97,25,253,15
id_871,月光荘,京都市北区紫野南舟岡町73-18,北区,簡易宿所,H17.9.9,35.0373644,135.7449493,2,1,1,48,1,8,0
id_872,樺屋,京都市下京区西木屋町通松原上る二丁目天満町４５６番地２１,下京区,簡易宿所,R2.12.17,34.9999792,135.7685369,1,10,0,44,5,32,0
id_873,稲荷凰庵　昴,京都市伏見区深草稲荷鳥居前町２２番地３（家屋番号３４）,伏見区,簡易宿所,H31.1.28,34.9666045,135.7687136,52,5,7,71,8,82,9
id_874,京のおおぞら風華　桔梗,京都市下京区油小路通松原下る樋口町２９２番地　北棟,下京区,簡易宿所,R2.9.29,34.9980249,135.7538084,1,16,20,58,0,38,0
id_875,有限会社伊香詰所,京都市下京区不明門通七条上ル粉川町２３３番地,下京区,簡易宿所,H18.6.28,34.9899838,135.7605631,0,3,6,20,0,13,0
id_876,ＮＡＺＵＮＡ　京都　椿通　ＩＷＡ－１３,京都市下京区高辻通大宮西入坊門町８３６番地１３,下京区,簡易宿所,R2.3.31,34.9994568,135.748681,3,6,11,27,3,29,0
id_877,ＧＡＭＯＮ,京都市南区八条源町４４番地１６,南区,簡易宿所,H29.1.19,34.9845214,135.743939,9,14,49,85,3,108,2
id_878,Ｍａａｎａ　Ｋａｍｏ,京都市東山区問屋町通五条下る三丁目西橘町４８１番地３,東山区,簡易宿所,R2.2.20,34.9929749,135.7681952,3,1,23,65,3,41,9
id_879,日照堂町家・ＨＩＫＡＲＵ　ＯＩＫＥ,京都市中京区西洞院通御池下る三坊西洞院町７８３番地,中京区,簡易宿所,R2.5.22,35.009887,135.7553989,3,3,0,20,0,6,0
id_880,Ｇｕｅｓｔ　Ｈｏｕｓｅ　Ｌｉｔｔｌｅ　Ｒｅｔｒｅａｔ  ゲストハウス リトル・リトリート,京都市伏見区深草芳本町６６４番地２,伏見区,簡易宿所,H28.10.11,34.9499469,135.7693212,0,0,0,39,3,4,1
id_881,Ｇｕｅｓｔ　Ｈｏｕｓｅ　Ｎｏｂｉ,京都市下京区岩上通木津屋橋下る松本町１１８番地,下京区,簡易宿所,R3.6.29,34.9873474,135.7517191,0,8,16,36,5,37,1
id_882,冠邸,京都市中京区壬生御所ノ内町２７番地２０,中京区,簡易宿所,H30.3.13,35.003983,135.7438023,21,5,12,83,1,46,2
id_883,菊ノ井,京都市東山区下河原通八坂鳥居前下る下河原町459-93,東山区,旅館・ホテル,S24.10.20,35.001446,135.781691,2,1,0,22,0,4,0
id_884,永巧舎六号館,京都市中京区壬生西大竹町２３番地（家屋番号４）,中京区,簡易宿所,R1.8.15,35.007318,135.7328808,1,0,2,28,4,12,0
id_885,緑風荘,"京都市下京区西洞院通六条上る金屋町491-1,2.3.4,490,493",下京区,旅館・ホテル,H1.10.26,34.9944021,135.7554303,12,90,58,78,3,175,8
id_886,桜　ＳＡＫＵＲＡ,京都市南区東九条宇賀辺町６０番地４　２階,南区,簡易宿所,H30.7.25,34.9775678,135.7644396,8,4,1,29,0,29,0
id_887,晴樂,京都市下京区高倉通花屋町下る若松町４１５番地１,下京区,簡易宿所,R2.8.25,34.993207,135.7622512,2,26,39,71,2,70,0
id_888,妙顕寺,京都市上京区寺之内通新町西入妙顕寺前町514,上京区,簡易宿所,S52.8.1,35.0349593,135.7540985,2,13,25,43,0,48,0
id_889,開化（北）,京都市北区紫野上門前町６６番地　北側,北区,簡易宿所,H29.11.27,35.0453734,135.7478508,0,0,2,27,1,3,0
id_890,ＫＹＯＳＴＡＹいろは小紫２,京都市南区西九条針小路町２２番地８（西側）,南区,簡易宿所,R7.2.17,34.9825081,135.7511423,1,5,2,34,0,10,0
id_891,スマートプレイスイン京都四条大宮イースト,京都市中京区岩上通錦小路下る松浦町８４９番地１,中京区,簡易宿所,R3.1.29,35.004695,135.7510875,3,29,9,73,0,73,2
id_892,柔らかい月-ｍａｉｓｅｍｏｉｊａｎ-,京都市南区四ツ塚町６８番地,南区,簡易宿所,H29.7.4,34.9789616,135.7451155,11,15,58,79,1,124,3
id_893,京都センチュリーホテル,京都市下京区東洞院通七条下る東塩小路町６８０番地,下京区,旅館・ホテル,H31.1.18,34.9861928,135.7614596,15,29,136,97,2,211,6
id_894,流雲荘,京都市南区東九条松田町９９番地,南区,簡易宿所,H28.2.12,34.9748834,135.753936,12,1,20,51,2,94,1
id_895,京紫,京都市北区紫野中柏野町３７番地１４,北区,簡易宿所,H28.8.26,35.0354627,135.7364236,21,14,27,84,3,71,2
id_896,夕禅,京都市下京区西七条北東野町１１５番地,下京区,簡易宿所,H29.2.28,34.989342,135.7383381,7,8,0,32,0,16,0
id_897,Ｍａｉｋｏ－ｈａｎ　ｉｎｎ　Ｋｙｏｔｏ,京都市東山区泉涌寺五葉ノ辻町２０番地２,東山区,簡易宿所,H30.5.14,34.9823319,135.7716948,10,2,1,44,1,26,4
id_898,洋々（ＹｏＹｏ）,京都市中京区西ノ京冷泉町３番地,中京区,簡易宿所,H28.8.22,35.0160333,135.7354216,95,6,12,107,10,139,4
id_899,,京都市東山区鞘町通七条上る下堀詰町２５７番地２の２,東山区,施設外玄関帳場,,34.9901088,135.768176,2,1,0,17,1,6,2
id_900,廣誠院宿坊,京都市中京区河原町通二条下る一之船入町５３８番地１,中京区,簡易宿所,H30.1.11,35.0119618,135.7700654,1,1,0,22,0,6,0
id_901,Ｃ２　ＫＹＯＴＯ　ＳＵＩＴＥ,京都市下京区鍵屋町通烏丸西入鍵屋町３３３番地,下京区,旅館・ホテル,R2.6.12,34.9950238,135.7587624,3,1,16,38,5,27,2
id_902,,京都市南区東九条上御霊町２番１　SOWA京都駅前ビル１F,南区,施設外玄関帳場,,34.9806385,135.7614411,1,0,5,22,0,14,0
id_903,ホテルクオーレ京都四条大宮,京都市下京区黒門通四条下る下り松町１６７番地,下京区,旅館・ホテル,R1.5.31,35.0026016,135.7496368,2,0,14,36,3,20,0
id_904,祇園清水庵,京都市東山区松原通大和大路東入二丁目轆轤町１０２番地５,東山区,簡易宿所,R5.4.28,34.9979584,135.7742317,19,6,16,69,0,74,1
id_905,四季々々　東山,京都市東山区三条通南裏白川筋西入二丁目八軒町４４９番地２,東山区,簡易宿所,H31.3.26,35.0090388,135.7793614,13,3,2,47,0,20,1
id_906,ふらっと高台寺,京都市東山区清閑寺霊山町５番地５,東山区,簡易宿所,H30.10.1,34.9978929,135.783223,34,10,96,109,1,171,30
id_907,鳴間の宿,京都市南区唐橋門脇町１１番地８,南区,簡易宿所,R2.3.9,34.9825268,135.7366822,13,3,58,91,1,85,3
id_908,スマートプレイスイン京都二条城堀川,京都市中京区新シ町通三条下る下一文字町３２９番地,中京区,簡易宿所,R2.12.10,35.0077667,135.7495813,12,0,1,53,4,35,0
id_909,Ｓｔａｙ ＳＡＫＵＲＡ 京都　祭,京都市下京区岩上通木津屋橋下る伊勢松町１１５番地１,下京区,簡易宿所,H31.4.15,34.9875234,135.7514304,0,8,18,45,5,35,0
id_910,夢花壬生　紅葉,京都市中京区壬生下溝町２６番地１５,中京区,簡易宿所,H31.1.29,34.9991826,135.738887,12,12,5,48,10,42,1
id_911,,京都市南区西九条南田町１番地４　東寺ハイム２０３号室,南区,施設外玄関帳場,,34.9762484,135.7464904,9,0,7,77,3,46,2
id_912,Ｋｉｔａｎｏ－Ｈａｋｕｂａｉｃｈｏ　ＩＮＮ　Ｎｏ．２,京都市北区大将軍川端町６番地，９番地,北区,簡易宿所,R1.9.10,35.0260996,135.7322968,0,6,10,43,0,18,1
id_913,ひふみ旅館,京都市下京区不明門通七条下る東塩小路町711,下京区,旅館・ホテル,S51.6.16,34.9884672,135.7604636,22,26,31,82,0,89,4
id_914,Ｓｔａｙ　ＳＡＫＵＲＡ　ｋｙｏｔｏ　東本願寺,京都市下京区西洞院通五条下る小柳町５０２番地１，５０３番地１,下京区,簡易宿所,H30.10.31,34.99531,135.7549861,1,14,24,52,25,84,3
id_915,京粋庵　琥珀邸,京都市東山区泉涌寺五葉ノ辻町２番地,東山区,簡易宿所,R7.12.16,34.9820716,135.7709356,44,1,20,67,2,83,8
id_916,兆　ＫＩＺＡＳＨＩ　ＴＨＥ　ＳＵＩＴＥ　京都祇園,京都市東山区祇園町北側２７５祇園くろちくビル３、４階,東山区,旅館・ホテル,H21.3.18,35.0042102,135.7758035,2,1,14,47,0,28,8
id_917,Ｋｙｏｔｏ　幸,京都市南区西九条南田町４４番地５,南区,簡易宿所,R5.3.13,34.9787244,135.7488502,4,5,0,38,2,14,0
id_918,Ｅｘｐｏ　Ｃｏｔｔａｇｅ　逢　－Ａｉ,京都市北区紫野西藤ノ森町２番地３６,北区,簡易宿所,H29.1.12,35.0368532,135.7462592,5,56,2,96,4,80,3
id_919,arcana villa kyoto arashiyama,京都市右京区嵯峨天龍寺芒ノ馬場町４５番地２０,右京区,簡易宿所,R6.1.31,35.014889,135.6745964,27,4,2,88,3,52,1
id_920,ダブルツリーｂｙヒルトン京都東山,京都市東山区本町一丁目４５番地,東山区,旅館・ホテル,R5.8.1,34.9951401,135.7696207,1,0,6,34,0,13,2
id_921,慶有魚　奏　南側,京都市下京区高辻通油小路東入永養寺町２３７番地３８、２３７番地６　南側,下京区,簡易宿所,R5.7.26,35.0002217,135.7543752,14,6,52,95,18,103,1
id_922,ホテル　クーナ,京都市西京区大枝沓掛町２６番地３０,西京区,旅館・ホテル,H17.10.31,34.9801089,135.6557972,36,5,2,51,12,58,1
id_923,ＴＨＥ　ＳＣＲＥＥＮ,京都市中京区寺町通丸太町下る下御霊前町６４０番地１,中京区,旅館・ホテル,H22.4.28,35.0171226,135.7670472,5,7,12,94,30,69,3
id_924,衣千花-ICHIKA-,京都市伏見区桃山最上町６１番地６,伏見区,簡易宿所,R7.6.25,34.9438715,135.7664658,48,6,55,91,8,140,11
id_925,柊家　別館,京都市中京区御幸町通二条下る山本町431,中京区,旅館・ホテル,S34.7.27,35.0128695,135.7666949,0,2,5,49,1,15,0
id_926,農家民宿　ほろろん,京都市右京区京北大野町廣畑４５番地,右京区,簡易宿所,H29.5.2,35.194895,135.6824332,0,3,4,18,1,10,0
id_927,Ｆｏｒｅｓｔ　Ｇｕａｒｄｉａｎ　Ｈｏｔｅｌ　京都御所西,京都市上京区小川通下立売上る勘兵衛町１３２番地,上京区,旅館・ホテル,R5.11.15,35.0203422,135.7540591,0,0,0,38,3,23,0
id_928,鈴　京都八坂南１,京都市東山区下河原通八坂鳥居前下る上弁天町４４５番地１,東山区,簡易宿所,R3.10.19,35.0017453,135.7778799,3,14,0,59,3,44,22
id_929,京のおおぞら 祇園 翠,京都市東山区智恩院新門前大和大路東入二丁目中之町２３６番地３，２３６番地４,東山区,簡易宿所,R4.4.1,35.0060918,135.7749603,4,6,46,82,9,83,11
id_930,かね助,京都市中京区壬生相合町２５番地７,中京区,簡易宿所,H28.8.22,34.9999909,135.7467589,7,20,3,41,4,44,0
id_931,ゲストハウス　ベル伏見,京都市伏見区紺屋町１６９番地,伏見区,簡易宿所,H28.6.20,34.9362431,135.7601091,8,0,28,30,2,42,2
id_932,ホテル　エルシエント京都八条口,京都市南区東九条東山王町１３番地,南区,旅館・ホテル,H16.9.30,34.9829717,135.7618725,13,3,55,87,5,127,4
id_933,京町屋　プライベートレジデンス  二条城　帆（Ｈａｎ）,京都市中京区大宮通姉小路下る姉大宮町西側８７番地,中京区,簡易宿所,H30.12.21,35.009725,135.7487952,115,7,16,107,13,152,0
id_934,ｍｅｅｔ　東九条,京都市南区東九条東御霊町１番地３８,南区,簡易宿所,R2.5.27,34.9773173,135.7630551,0,8,36,55,0,51,0
id_935,京都市宇津峡公園,京都市右京区京北下宇津町向ヒ山1，1-1，2-1，3，7-1,右京区,簡易宿所,H9.3.31,34.8334632,137.2029567,0,8,0,34,3,13,1
id_936,楽福　伏見稲荷　ＴＳＫＲ,京都市伏見区深草稲荷鳥居前町１４番地１,伏見区,簡易宿所,R6.10.28,34.9668412,135.7696302,19,2,2,44,3,31,4
id_937,Ｓｈｉｚｕｒｕ 鴨川,京都市下京区木屋町通松原上る三丁目天王町１４５番地１,下京区,旅館・ホテル,R5.11.14,35.001603,135.7699059,0,0,1,20,0,10,0
id_938,Ｅｘｐｏ　Ｃｏｔｔａｇｅ　３,京都市北区紫野南舟岡町３９番地１９,北区,簡易宿所,H30.7.17,35.0362445,135.7442069,34,21,32,93,1,96,4
id_939,京　楽　家,京都市南区唐橋高田町３２番地７,南区,簡易宿所,H30.7.25,34.9804015,135.7420759,2,2,9,26,1,18,0
id_940,Ｇｕｅｓｔ　ｓｕｉｔｅｓ　福菊,京都市伏見区深草下川原町５６番地６,伏見区,簡易宿所,H29.12.25,34.9697591,135.7627464,4,6,5,76,1,17,0
id_941,七条庵,京都市下京区七条通木屋町上る大宮町２０５番地８,下京区,簡易宿所,R1.7.22,34.9898283,135.7656388,0,1,16,40,13,60,2
id_942,ゲストハウス京都伏見・翁邸,京都市伏見区東柳町５０１番地１，５０１番地２,伏見区,簡易宿所,H29.2.21,34.9287331,135.7600745,6,6,36,65,0,68,8
id_943,誉　稲荷邸,京都市伏見区深草秡川町２２番地２２,伏見区,簡易宿所,R4.10.28,34.9674516,135.7683248,44,7,94,75,1,168,2
id_944,Ｗｅｓｔ　Ｊａｐａｎ　京都清水,京都市東山区松原通大和大路東入三丁目新シ町１３３番地，１３４番地３,東山区,簡易宿所,R2.6.9,34.9978807,135.7762829,5,9,26,95,4,85,30
id_945,石長本館　松菊園,京都市中京区土手町通竹屋町下る末丸町284-20,中京区,旅館・ホテル,S44.12.27,35.015362,135.7701331,1,6,0,33,3,11,0
id_946,ＭＩＭＡＲＵ京都　新町三条,京都市中京区新町通三条上る町頭町１０５番地,中京区,簡易宿所,R2.2.10,35.0093534,135.7566891,2,5,0,18,1,15,0
id_947,秋桜館Ｃｏｓｍｏｓ,京都市中京区壬生下溝町１７番地２,中京区,簡易宿所,R5.11.15,35.0000556,135.7378762,0,16,0,30,2,28,0
id_948,京都ｉｎｎ美桜,京都市東山区一橋宮ノ内町１５番地１１，２０番地８，５５番地,東山区,簡易宿所,R1.11.12,34.9876625,135.7688112,83,10,5,88,5,116,11
id_949,メグル家,京都市下京区高倉通松原下る西入福田寺町５２番地　西,下京区,簡易宿所,H31.3.5,34.998068,135.7622213,2,5,67,84,18,136,6
id_950,Ｍａｃｈｉｙａ　Ｉｃｈｉｊｏｊｉ　ｓｉｎｃｅ１９３１,京都市左京区一乗寺西杉ノ宮町６番地,左京区,簡易宿所,R2.3.16,35.0466886,135.7861402,2,23,87,74,15,138,1
id_951,さなり近衛殿,京都市上京区新町通今出川一丁上る東入近衛殿北口町１９２番地,上京区,簡易宿所,H29.5.2,35.0308584,135.7548843,124,2,0,71,0,150,2
id_952,ＨＡＥＮＧＲＡＮＧ,京都市南区西九条院町２２番地４６,南区,簡易宿所,H29.10.3,34.9824998,135.756664,9,0,41,75,1,53,0
id_953,みつた荘,京都市左京区花脊原地町２４８番地,左京区,旅館・ホテル,H9.8.22,35.2368098,135.7792463,3,0,12,36,0,29,0
id_954,上黒門町　葵,京都市中京区黒門通六角下る上黒門町３７０番地,中京区,簡易宿所,H28.8.22,35.0071862,135.7496301,5,32,12,110,11,78,4
id_955,ｎｉｃｈｉｎｉｃｈｉ,京都市東山区鞘町通五条下る四丁目正面町３０９番地２,東山区,簡易宿所,R7.6.6,34.9921066,135.769054,17,0,11,62,2,35,4
id_956,Ｋａｍｏｎ　Ｉｎｎ　Ｔｏｊｉ　Ｍｉｃｈｉ,京都市南区西九条唐橋町４８番地,南区,簡易宿所,R1.10.23,34.9816779,135.7509787,12,7,26,52,2,56,1
id_957,祇園松原庵,京都市東山区松原通大和大路西入弓矢町９番地,東山区,簡易宿所,R6.10.1,34.9986409,135.7709468,19,6,20,57,0,51,6
id_958,京都小景一号,京都市南区東九条明田町４１番地５,南区,簡易宿所,R7.4.18,34.9758065,135.7606513,1,0,1,19,0,6,0
id_959,宿はる家Ａｑｕａ２,京都市下京区和気町１番地,下京区,簡易宿所,H24.10.10,34.9884206,135.7470642,0,0,11,35,0,14,1
id_960,山喜久,京都市中京区御池河原町東入一之船入町537,中京区,旅館・ホテル,S37.11.27,35.011338,135.7699064,4,5,34,71,6,81,0
id_961,Ｍｉｎｇ’ｓ　Ｈｏｕｓｅ　Ｋｙｏｔｏ,京都市南区東九条東札辻町２６番地２,南区,簡易宿所,R3.7.16,34.9770431,135.7633683,0,2,1,26,0,34,0
id_962,文　Ａｙａ　ｉｎｎ　烏丸五条,京都市下京区不明門通五条下る上平野町４６０番地１,下京区,簡易宿所,H29.2.27,34.9954412,135.7606044,9,3,44,72,2,75,6
id_963,香柏　西陣　綴,京都市上京区六軒町通五辻上る末広町２１番地５,上京区,簡易宿所,R2.3.10,34.7655441,135.5323764,16,5,1,39,3,27,0
id_964,ちとせ,京都市伏見区南新地58,伏見区,旅館・ホテル,S53.1.12,34.9279227,135.7591392,3,3,47,56,7,70,4
id_965,ＡＳＡＩ京都四条,京都市下京区松原通烏丸東入南側俊成町４４４番地,下京区,旅館・ホテル,R5.5.19,34.9986592,135.7603643,1,25,16,46,1,54,0
id_966,平旅籠 ひばり,京都市下京区朱雀分木町５７番地２，５７番地３,下京区,簡易宿所,H29.7.31,34.9925372,135.739992,4,12,0,45,1,34,0
id_967,株式会社　日本館,京都市下京区烏丸通七条下る西入東塩小路町696-1,下京区,旅館・ホテル,S34.2.18,34.9886849,135.7581548,2,23,107,79,3,165,6
id_968,沐月居（もっげつきょ）,京都市下京区仏具屋町通五条下る上錫屋町７４番地２の２南側,下京区,簡易宿所,R5.8.30,34.995061,135.7560376,0,8,20,40,5,39,2
id_969,アーバンホテル京都四条プレミアム,京都市下京区堀川通四条下る四条堀川町２７２番地６,下京区,旅館・ホテル,R1.9.27,35.0028074,135.7524195,6,23,36,69,15,85,4
id_970,季・鞍馬口,京都市上京区室町通鞍馬口下る二丁目竹園町１６番地２,上京区,簡易宿所,H29.5.23,35.0363227,135.7582903,22,1,49,55,4,191,2
id_971,ｔｅｒｒａ,京都市東山区本町十七丁目３３６番地,東山区,簡易宿所,R7.5.20,34.9774317,135.7708613,25,5,4,84,1,48,1
id_972,ＳＨＵＮＪＵ　ＲＯＯＪＩ,京都市南区西九条唐橋町３８番地,南区,簡易宿所,R2.3.24,34.9811705,135.7513119,14,21,49,88,13,105,3
id_973,今熊野テラス　木米庵,京都市東山区今熊野南日吉町１１１番地１北から２軒目,東山区,簡易宿所,R1.8.15,34.9857818,135.7787647,4,6,27,91,1,50,11
id_974,静鉄ホテルプレジオ京都烏丸御池,京都市中京区車屋町通御池上る塗師屋町３３９番地,中京区,旅館・ホテル,R1.5.24,35.0115624,135.7605433,1,0,0,41,3,26,0
id_975,映・花見堂,京都市東山区三条通南二筋目白川筋西入二丁目進之町５９６番地４,東山区,簡易宿所,R6.4.12,35.0080856,135.7770929,3,0,2,17,0,6,0
id_976,別邸　凛,京都市南区東九条北烏丸町８番地１０,南区,簡易宿所,H29.3.23,34.9813944,135.7593733,3,1,16,40,0,24,1
id_977,長谷川,京都市東山区本町通五条下る本町十九丁目３９９番地,東山区,簡易宿所,H31.1.23,34.9749892,135.7709633,2,5,22,65,4,33,0
id_978,婆娑羅　西陣,京都市上京区元誓願寺通千本西入松屋町３９１番地１（北棟）,上京区,簡易宿所,R7.12.17,35.0287535,135.7417922,6,0,4,24,1,23,0
id_979,とみ家,京都市下京区木屋町通高辻上る和泉屋町171-3,下京区,簡易宿所,H1.4.28,35.0000046,135.7692135,1,23,34,70,0,69,0
id_980,Ｃｏｚｙ　ｅｎｊｏｙｍｅｎｔ　ｈｏｔｅｌ　ｎｏ２９,京都市右京区梅津堤下町７６番地２,右京区,簡易宿所,H30.6.28,34.9998315,135.7113481,9,29,10,62,15,80,12
id_981,Ｒｉｎｎ　Ｓｈｉｊｏ　Ｎｉｓｈｉｎｏｔｏｉｎ,京都市中京区西洞院通六角下る池須町４２３番地６,中京区,簡易宿所,R1.9.27,35.0062135,135.7550746,0,36,0,50,3,58,1
id_982,柏・四条大宮１,京都市中京区壬生松原町５４番地９,中京区,簡易宿所,H29.5.11,35.0009088,135.740705,5,4,29,93,10,55,2
id_983,ホテル　マルモル,京都市中京区御幸町通六角下ル伊勢屋町 346,中京区,旅館・ホテル,H7.4.27,35.0068195,135.7661955,4,5,2,31,2,15,0
id_984,柏・四条大宮４,京都市下京区大宮通高辻下る高辻大宮町１２２番地,下京区,簡易宿所,H30.5.15,34.9994671,135.7493314,0,12,6,27,0,19,0
id_985,京の宿　菫,京都市南区八条源町８７番地２,南区,簡易宿所,R1.8.30,34.9829328,135.7437423,13,2,36,92,4,76,3
id_986,東雲　夏,京都市南区西九条川原城町７６番地,南区,簡易宿所,R2.4.30,34.9802095,135.751944,22,12,63,53,0,109,2
id_987,鼓,京都市下京区若宮通六条下る若宮町５５４番地,下京区,簡易宿所,R5.9.11,34.9933948,135.7560273,10,4,41,85,18,76,1
id_988,わびさび,京都市下京区西七条南東野町１８０番地,下京区,簡易宿所,H29.2.27,34.9884334,135.7386533,5,0,20,58,7,59,4
id_989,京都駅　じゅらく庵,京都市南区東九条中殿田町１番地１５,南区,簡易宿所,H30.1.25,34.9810402,135.7564567,4,4,14,34,1,25,0
id_990,萃点七条鴨川,京都市東山区一橋宮ノ内町１５番地２３,東山区,簡易宿所,R6.3.27,34.9879158,135.7690298,32,10,32,88,1,92,15
id_991,ＴＡＫＥＹＡ　ＢＥＫＫＡＮ,京都市上京区今出川通七本松西入真盛町７２９番地１,上京区,簡易宿所,H28.5.20,35.0298197,135.7380157,10,2,25,94,1,45,3
id_992,やまがた京町旅籠　京都駅前,京都市南区東九条上殿田町１８番地,南区,簡易宿所,R2.3.30,34.9824086,135.7586438,10,3,6,83,4,28,0
id_993,貝田,京都市東山区馬町通大和大路東三丁目妙法院前側町426,東山区,旅館・ホテル,S47.6.3,34.9916403,135.7743335,1,0,1,40,1,8,4
id_994,惠庵　二条別邸,京都市左京区岡崎徳成町７番地７,左京区,簡易宿所,H29.12.11,35.0138738,135.7773632,1,3,44,68,12,166,8
id_995,Ｇｕｅｓｔ　Ｈｏｕｓｅ　Ｏｕｍｉ　近江,京都市中京区西ノ京永本町１９番地１１,中京区,簡易宿所,H28.6.7,35.011917,135.7388754,9,0,0,46,4,34,1
id_996,,京都市南区西九条森本町６番地,南区,施設外玄関帳場,,34.9720097,135.7487878,1,2,0,25,0,10,0
id_997,"The Chapter Kyoto,  a Tribute Portfolio Hotel",京都市中京区河原町通二条上る清水町３４１番地,中京区,旅館・ホテル,R4.9.8,35.0142996,135.7694474,34,38,17,98,13,112,3
id_998,ゲストハウス　月沈原,京都市上京区下立売通堀川西入西橋詰町２７７番地,上京区,簡易宿所,H30.1.10,35.0200989,135.7507215,0,3,0,26,2,8,0
id_999,京明舎,京都市南区東九条東御霊町１７番地３,南区,簡易宿所,H31.2.20,34.9782839,135.7631312,2,3,70,90,1,150,9
id_1000,ＲＡＫＵＴＯＫＯ　ＵＭＥ,京都市中京区西ノ京船塚町１２番地２６,中京区,簡易宿所,H28.3.14,35.0118058,135.7371545,0,0,0,47,0,10,0
id_1001,ＧＵＥＳＴＨＯＵＳＥ　ＣＨＡＹＡＭＡ,京都市左京区田中西高原町１４番地６,左京区,簡易宿所,H29.4.7,35.0373705,135.7853364,3,1,0,31,5,14,4
id_1002,花,京都市下京区土手町通七条上る納屋町407番地3,下京区,簡易宿所,H28.7.6,34.9902514,135.7646558,0,4,36,65,2,53,0
id_1003,鴨川レジデンス,京都市下京区西石垣通四条下る斎藤町１３８番地、１４０番地２４、１３８番地８,下京区,簡易宿所,R5.3.13,35.0019876,135.7701849,2,5,10,95,2,31,6
id_1004,漫屋,京都市中京区壬生下溝町４３番地１１,中京区,簡易宿所,H29.9.11,34.9998247,135.7369834,23,26,1,78,1,58,3
id_1005,京一軒町家　染　ＳＥＮ　五条上長　ドッグフレンドリー,京都市下京区下松屋町通松原下る上長福寺町２４２番地，２４３番地,下京区,簡易宿所,R3.5.28,34.9978967,135.7484513,11,35,55,98,2,113,8
id_1006,ラオンイン園縄手,京都市東山区大和大路四条下る大和町１６番地１,東山区,簡易宿所,H29.11.2,35.003027,135.773044,3,6,18,76,11,47,1
id_1007,Kyoto Guesthouse HIVE,京都市中京区新烏丸通竹屋町上る梅之木町１３３番地１,中京区,簡易宿所,R5.10.31,35.0156871,135.7678444,23,29,2,79,8,111,3
id_1008,遥月,京都市下京区不明門通五条下る上平野町４６０番地２,下京区,簡易宿所,R6.10.2,34.9954331,135.7605488,32,35,61,85,56,201,16
id_1009,京町家　北山大宮,京都市北区紫竹下緑町６２番地,北区,簡易宿所,R1.10.11,35.0502705,135.7483173,7,0,1,35,0,16,0
id_1010,在川,京都市下京区堺町通五条上る俵屋町２２９番地,下京区,簡易宿所,H30.2.23,34.9973444,135.7634739,1,3,29,64,7,45,4
id_1011,東横イン京都四条烏丸,京都市下京区四条通烏丸東入ル長刀鉾町２８番地,下京区,旅館・ホテル,H14.5.10,35.0039726,135.7607304,0,1,2,37,5,33,0
